unitid,institution_name,state_cd,lat,lon,region,nearest_mlb,nearest_mlb_dist,nearest_nba,nearest_nba_dist
100654,Alabama A & M University,AL,34.7826,-86.5687,ESC,Atlanta Braves,134.78420405237935,Atlanta Hawks,142.83735790047032
100706,University of Alabama in Huntsville,AL,34.725,-86.64,ESC,Atlanta Braves,136.7255850667554,Atlanta Hawks,144.54116297687315
100724,Alabama State University,AL,32.364000000000004,-86.295,ESC,Atlanta Braves,149.30142083008764,Atlanta Hawks,146.12365477881147
100751,The University of Alabama,AL,33.21083333,-87.54611111,ESC,Atlanta Braves,183.34320298916646,Atlanta Hawks,185.38401142187254
100760,Central Alabama Community College,AL,32.92623,-85.94649,ESC,Atlanta Braves,108.19224700905588,Atlanta Hawks,106.30927862639412
100830,Auburn University at Montgomery,AL,32.369723,-86.17690999999999,ESC,Atlanta Braves,144.25422565903844,Atlanta Hawks,140.77943118199408
100858,Auburn University,AL,32.603,-85.486,ESC,Atlanta Braves,106.61744131373415,Atlanta Hawks,101.63588008209358
100937,Birmingham Southern College,AL,33.515,-86.853,ESC,Atlanta Braves,139.51533180340817,Atlanta Hawks,142.30121550684373
101028,Chattahoochee Valley Community College,AL,32.424,-85.031,ESC,Atlanta Braves,106.39667291196214,Atlanta Hawks,99.1710128061177
101143,Enterprise State Community College,AL,31.298000000000002,-85.837,ESC,Atlanta Braves,196.01426192095286,Atlanta Hawks,189.5045385266583
101161,Coastal Alabama Community College,AL,30.85,-87.78,ESC,Atlanta Braves,285.39892582176907,New Orleans Pelicans,150.6456654004134
101189,Faulkner University,AL,32.38555556,-86.21722222,ESC,Atlanta Braves,145.0705935008531,Atlanta Hawks,141.75694861086245
101240,Gadsden State Community College,AL,33.99447,-85.99195,ESC,Atlanta Braves,87.64965332179966,Atlanta Hawks,92.98400253866085
101295,George C Wallace State Community College-Hanceville,AL,34.07248,-86.77663000000001,ESC,Atlanta Braves,132.86656900033984,Atlanta Hawks,138.2030911596145
101435,Huntingdon College,AL,32.35,-86.285,ESC,Atlanta Braves,149.58469515452492,Atlanta Hawks,146.33588971467367
101480,Jacksonville State University,AL,33.821999999999996,-85.766,ESC,Atlanta Braves,74.6241442690268,Atlanta Hawks,78.77318949104215
101505,Jefferson State Community College,AL,33.38521,-86.73103,ESC,Atlanta Braves,134.7669492141394,Atlanta Hawks,136.83438922798442
101514,John C Calhoun State Community College,AL,34.648,-86.948,ESC,Atlanta Braves,150.97467365023783,Atlanta Hawks,158.26013284054812
101587,University of West Alabama,AL,32.59,-88.186,ESC,Atlanta Braves,232.8567534000525,Memphis Grizzlies,206.01078940840713
101648,Marion Military Institute,AL,32.6237,-87.3211,ESC,Atlanta Braves,186.61329416938452,Atlanta Hawks,186.354928587127
101675,Miles College,AL,33.48055556,-86.90888889,ESC,Atlanta Braves,143.15179943486757,Atlanta Hawks,145.8156798124288
101693,University of Mobile,AL,30.793325,-88.128789,ESC,Atlanta Braves,302.35280920994785,New Orleans Pelicans,130.22836802576933
101709,University of Montevallo,AL,33.10378,-86.86497,ESC,Atlanta Braves,148.40303108079382,Atlanta Hawks,149.3275595922461
101879,University of North Alabama,AL,34.81,-87.68,ESC,Atlanta Braves,193.92670537523074,Memphis Grizzlies,136.11133299795065
101912,Oakwood University,AL,34.756,-86.65299999999999,ESC,Atlanta Braves,138.29064092314806,Atlanta Hawks,146.1774137511069
102030,Bishop State Community College,AL,30.69416667,-88.0575,ESC,Atlanta Braves,304.43798942833996,New Orleans Pelicans,131.26056719658465
102067,Shelton State Community College,AL,33.12052,-87.56148,ESC,Atlanta Braves,185.97491885621542,Atlanta Hawks,187.7072863687391
102076,Snead State Community College,AL,34.20138889,-86.17,ESC,Atlanta Braves,99.78548623058497,Atlanta Hawks,106.15018807994274
102094,University of South Alabama,AL,30.696709999999996,-88.17873,ESC,Atlanta Braves,309.2255505032493,New Orleans Pelicans,124.71376866889405
102234,Spring Hill College,AL,30.6943,-88.13682,ESC,Atlanta Braves,307.63761507352115,New Orleans Pelicans,126.92647431394046
102270,Stillman College,AL,33.19805556,-87.58527778,ESC,Atlanta Braves,185.7620283086554,Atlanta Hawks,187.7868978204348
102298,Talladega College,AL,33.43222222,-86.11305556,ESC,Atlanta Braves,99.75061660745216,Atlanta Hawks,101.31745928052091
102368,Troy University,AL,31.79805556,-85.95388889,ESC,Atlanta Braves,168.31365649107684,Atlanta Hawks,162.81359358952162
102377,Tuskegee University,AL,32.43027778,-85.70777778,ESC,Atlanta Braves,123.74910349257708,Atlanta Hawks,119.02694834343886
102429,Bevill State Community College,AL,33.751459999999994,-87.05074,ESC,Atlanta Braves,148.55826759703072,Atlanta Hawks,152.47860876597392
102553,University of Alaska Anchorage,AK,61.18988611,-149.8270139,oth,Seattle Mariners,1432.3059196589156,Portland Trail Blazers,1536.0340524481792
102614,University of Alaska Fairbanks,AK,64.85888889,-147.8355556,oth,Seattle Mariners,1521.8918768632761,Portland Trail Blazers,1640.2177512181142
104151,Arizona State University-Tempe,AZ,33.417195,-111.93651100000001,MNT,Arizona Diamondbacks,7.767277730242288,Phoenix Suns,8.025039729941971
104160,Arizona Western College,AZ,32.689296999999996,-114.496049,MNT,Arizona Diamondbacks,150.0315706541517,Phoenix Suns,149.80332799807573
104179,University of Arizona,AZ,32.23166667,-110.95194440000002,MNT,Arizona Diamondbacks,105.92751071859128,Phoenix Suns,106.11555686590583
104346,Central Arizona College,AZ,32.9557438,-111.6526577,MNT,Arizona Diamondbacks,41.44532185598612,Phoenix Suns,41.625506463299594
104425,Cochise County Community College District,AZ,31.88055556,-109.7536111,MNT,Arizona Diamondbacks,172.60151018780536,Phoenix Suns,172.82676205265133
104577,Eastern Arizona College,AZ,32.8419,-109.762,MNT,Arizona Diamondbacks,139.70704047779523,Phoenix Suns,139.9634847384598
104586,Embry-Riddle Aeronautical University-Prescott,AZ,34.61449,-112.44596899999999,MNT,Arizona Diamondbacks,83.64919919581787,Phoenix Suns,83.5464393615679
104717,Grand Canyon University,AZ,33.5125,-112.13,MNT,Arizona Diamondbacks,5.897257493363008,Phoenix Suns,5.711979325688535
105145,GateWay Community College,AZ,33.44924,-111.99533799999999,MNT,Arizona Diamondbacks,4.13725523797743,Phoenix Suns,4.390724706340003
105154,Mesa Community College,AZ,33.39083333,-111.87166670000002,MNT,Arizona Diamondbacks,11.873417660608794,Phoenix Suns,12.12873721614546
105297,Dine College,AZ,36.32038,-109.23088,MNT,Arizona Diamondbacks,255.51129061474714,Phoenix Suns,255.6396074049089
105330,Northern Arizona University,AZ,35.188,-111.65299999999999,MNT,Arizona Diamondbacks,122.70548627567341,Phoenix Suns,122.71691370658493
105428,Phoenix College,AZ,33.484444,-112.08861100000001,MNT,Arizona Diamondbacks,2.9803950882131027,Phoenix Suns,2.8464634971141027
105525,Pima Community College,AZ,32.227,-111.01799999999999,MNT,Arizona Diamondbacks,103.89097325957772,Phoenix Suns,104.0733350063739
105747,Scottsdale Community College,AZ,33.5121878,-111.88517790000002,MNT,Arizona Diamondbacks,11.4500222939469,Phoenix Suns,11.669660178010181
105792,South Mountain Community College,AZ,33.3825,-112.03305559999998,MNT,Arizona Diamondbacks,4.757537463972613,Phoenix Suns,4.902662972597937
105899,Arizona Christian University,AZ,33.595894,-112.026026,MNT,Arizona Diamondbacks,10.670169874712826,Phoenix Suns,10.692424095680677
106148,Yavapai College,AZ,34.547652,-112.45365,MNT,Arizona Diamondbacks,79.32243633333206,Phoenix Suns,79.21483020396835
106245,University of Arkansas at Little Rock,AR,34.722471999999996,-92.34065,WSC,St. Louis Cardinals,294.55251711267897,Memphis Grizzlies,132.86549418761174
106306,Arkansas Baptist College,AR,34.735,-92.29055556,WSC,St. Louis Cardinals,292.6447768307993,Memphis Grizzlies,129.89876913067147
106342,Lyon College,AR,35.777640000000005,-91.62579000000001,WSC,St. Louis Cardinals,211.7783151896321,Memphis Grizzlies,99.04639291097646
106397,University of Arkansas,AR,36.068681,-94.176012,WSC,Kansas City Royals,206.72977274269596,Oklahoma City Thunder,191.79887500777164
106412,University of Arkansas at Pine Bluff,AR,34.242273,-92.020347,WSC,Texas Rangers,309.47196479384775,Memphis Grizzlies,127.88721099772853
106458,Arkansas State University-Main Campus,AR,35.841082,-90.679586,WSC,St. Louis Cardinals,194.03153189820603,Memphis Grizzlies,60.08203169627292
106467,Arkansas Tech University,AR,35.294371000000005,-93.133783,WSC,Kansas City Royals,269.9226419181111,Memphis Grizzlies,174.36839514696905
106485,University of Arkansas at Monticello,AR,33.590832,-91.813066,WSC,Texas Rangers,310.3383729989103,Memphis Grizzlies,146.74977734193632
106704,University of Central Arkansas,AR,35.077,-92.45700000000001,WSC,St. Louis Cardinals,275.0718151500315,Memphis Grizzlies,136.0831805507039
106713,Central Baptist College,AR,35.08325,-92.44502,WSC,St. Louis Cardinals,274.3841683521498,Memphis Grizzlies,135.388397213925
106810,Crowley's Ridge College,AR,36.06608,-90.58459,WSC,St. Louis Cardinals,177.93573262669855,Memphis Grizzlies,70.77416695831815
107044,Harding University,AR,35.24785,-91.72711,WSC,St. Louis Cardinals,248.0695315576232,Memphis Grizzlies,94.96596333167642
107071,Henderson State University,AR,34.13067778,-93.05881111,WSC,Texas Rangers,250.97279654196217,Memphis Grizzlies,184.63620380906178
107080,Hendrix College,AR,35.1,-92.44,WSC,St. Louis Cardinals,273.2210954788986,Memphis Grizzlies,135.06327295658298
107141,John Brown University,AR,36.19,-94.55861111,WSC,Kansas City Royals,197.72305575014633,Oklahoma City Thunder,173.05234494289385
107318,Arkansas State University Mid-South,AR,35.14575,-90.22292,WSC,St. Louis Cardinals,240.2262113723465,Memphis Grizzlies,9.75196926406718
107460,North Arkansas College,AR,36.221,-93.0882,WSC,Kansas City Royals,209.8322867136994,Memphis Grizzlies,186.16194066746283
107512,Ouachita Baptist University,AR,34.125,-93.05277778,WSC,Texas Rangers,251.15259457822327,Memphis Grizzlies,184.47250949667148
107558,University of the Ozarks,AR,35.477309999999996,-93.4672,WSC,Kansas City Royals,253.1156767458447,Memphis Grizzlies,194.0533690512746
107600,Philander Smith College,AR,34.73686,-92.28249,WSC,St. Louis Cardinals,292.34919881711005,Memphis Grizzlies,129.42362640900004
107877,Williams Baptist College,AR,36.125440000000005,-90.94023,WSC,St. Louis Cardinals,177.33898541463986,Memphis Grizzlies,84.54354146678217
107992,Southern Arkansas University Tech,AR,33.629540000000006,-92.72006,WSC,Texas Rangers,259.57750533180945,Memphis Grizzlies,184.4807744519908
108092,University of Arkansas-Fort Smith,AR,35.383583,-94.374651,WSC,Texas Rangers,239.19999438708578,Oklahoma City Thunder,176.891246484944
108232,Academy of Art University,CA,37.78785,-122.40065,PAC,San Francisco Giants,0.8948183355684524,Golden State Warriors,1.5447134140081897
108667,College of Alameda,CA,37.7822,-122.2793,PAC,Oakland Athletics,4.790477980565608,Golden State Warriors,5.989379241599406
108807,Allan Hancock College,CA,34.9416,-120.4188,PAC,Los Angeles Dodgers,137.78454512838394,Los Angeles Clippers,137.35215505921946
109208,American River College,CA,38.64946,-121.34623,PAC,Oakland Athletics,77.45690679883107,Sacramento Kings,9.271889392311264
109350,Antelope Valley College,CA,34.67694,-118.18611000000001,PAC,Los Angeles Dodgers,41.799180007930296,Los Angeles Clippers,44.040877701614306
109785,Azusa Pacific University,CA,34.129709999999996,-117.88888,PAC,Los Angeles Dodgers,20.458931950300926,Los Angeles Clippers,22.462372593626064
109819,Bakersfield College,CA,35.40973056,-118.97334440000002,PAC,Los Angeles Dodgers,101.27109305698849,Los Angeles Clippers,102.5883506731251
110060,Bethesda University,CA,33.842341,-117.941476,PAC,Los Angeles Angels,4.449612733018911,Los Angeles Clippers,23.258398256436454
110097,Biola University,CA,33.905558,-118.01811699999999,PAC,Los Angeles Angels,10.640519671290553,Los Angeles Clippers,17.14587202740388
110246,Butte College,CA,39.6478,-121.6441,PAC,Oakland Athletics,134.40165095756623,Sacramento Kings,69.3286949356487
110334,Cabrillo College,CA,36.9883,-121.925,PAC,Oakland Athletics,54.87099245521921,Golden State Warriors,59.56025506198507
110361,California Baptist University,CA,33.93,-117.425,PAC,Los Angeles Angels,27.75079429552299,Los Angeles Clippers,48.87906247381648
110404,California Institute of Technology,CA,34.1375,-118.125,PAC,Los Angeles Dodgers,7.922809050783018,Los Angeles Clippers,10.431102276418969
110413,California Lutheran University,CA,34.22472222,-118.87888889999999,PAC,Los Angeles Dodgers,37.99445407436046,Los Angeles Clippers,37.165268322076486
110422,California Polytechnic State University-San Luis Obispo,CA,35.30166667,-120.65981940000002,PAC,Los Angeles Dodgers,161.5458934727921,Los Angeles Clippers,161.38080857184892
110486,California State University-Bakersfield,CA,35.35,-119.104,PAC,Los Angeles Dodgers,100.92235300209974,Los Angeles Clippers,102.04720527856287
110495,California State University-Stanislaus,CA,37.525,-120.85583329999999,PAC,Oakland Athletics,75.22245609076236,Golden State Warriors,85.4592254311541
110510,California State University-San Bernardino,CA,34.1831,-117.324,PAC,Los Angeles Angels,41.52456683831383,Los Angeles Clippers,54.817238846165615
110529,California State Polytechnic University-Pomona,CA,34.05638889,-117.82166670000001,PAC,Los Angeles Angels,18.03907311859343,Los Angeles Clippers,25.523532167334913
110538,California State University-Chico,CA,39.73166667,-121.84944440000001,PAC,San Francisco Giants,138.04035614840458,Sacramento Kings,76.86989096799185
110547,California State University-Dominguez Hills,CA,33.86472222,-118.2561111,PAC,Los Angeles Dodgers,14.462343542915434,Los Angeles Clippers,12.33813441944123
110556,California State University-Fresno,CA,36.81333333,-119.75,PAC,Oakland Athletics,149.500110267217,Golden State Warriors,159.27316449973094
110565,California State University-Fullerton,CA,33.88055556,-117.8852778,PAC,Los Angeles Angels,5.548521547514371,Los Angeles Clippers,24.59968398112449
110574,California State University-East Bay,CA,37.65694444,-122.0577778,PAC,Oakland Athletics,10.185794437173369,Golden State Warriors,19.589311120999383
110583,California State University-Long Beach,CA,33.783021999999995,-118.112858,PAC,Los Angeles Angels,13.265157346228756,Los Angeles Clippers,20.028554920707336
110592,California State University-Los Angeles,CA,34.06666667,-118.1677778,PAC,Los Angeles Dodgers,4.161298596659172,Los Angeles Clippers,5.921723165117012
110608,California State University-Northridge,CA,34.24166667,-118.52833329999999,PAC,Los Angeles Dodgers,20.16414634001984,Los Angeles Clippers,20.279661891888495
110617,California State University-Sacramento,CA,38.56022222,-121.4241111,PAC,Oakland Athletics,70.0031040386827,Sacramento Kings,7.968523830576482
110635,University of California-Berkeley,CA,37.871899,-122.25853700000002,PAC,Oakland Athletics,8.889746024674073,Golden State Warriors,10.051016400355442
110644,University of California-Davis,CA,38.54,-121.75,PAC,Oakland Athletics,59.71754987766311,Sacramento Kings,14.621184930761949
110653,University of California-Irvine,CA,33.64555556,-117.8425,PAC,Los Angeles Angels,10.938000407960523,Los Angeles Clippers,36.71982387689746
110662,University of California-Los Angeles,CA,34.06944444,-118.4452778,PAC,Los Angeles Dodgers,11.75214030934674,Los Angeles Clippers,10.354253722352144
110671,University of California-Riverside,CA,33.97555556,-117.3311111,PAC,Los Angeles Angels,33.88003489155707,Los Angeles Clippers,53.81780200820019
110680,University of California-San Diego,CA,32.8801,-117.234,PAC,San Diego Padres,12.757649898574435,Los Angeles Clippers,100.01606719787543
110705,University of California-Santa Barbara,CA,34.41638889,-119.8463889,PAC,Los Angeles Dodgers,94.75565196275305,Los Angeles Clippers,93.82516272050226
110714,University of California-Santa Cruz,CA,37.0,-122.06,PAC,Oakland Athletics,52.505459979848276,Golden State Warriors,56.03066737744602
111188,California State University Maritime Academy,CA,38.06944444,-122.22972220000001,PAC,San Francisco Giants,21.893243325291767,Golden State Warriors,22.5298826966968
111434,Canada College,CA,37.4479941,-122.2649672,PAC,Oakland Athletics,21.275989457273052,Golden State Warriors,23.108864976615372
111461,College of the Canyons,CA,34.40444444,-118.56805559999998,PAC,Los Angeles Dodgers,29.557214468584903,Los Angeles Clippers,30.312599387316578
111887,Cerritos College,CA,33.8857,-118.09456999999999,PAC,Los Angeles Angels,13.511325159681165,Los Angeles Clippers,14.700131412981056
111896,Cerro Coso Community College,CA,35.5675,-117.6675,PAC,Los Angeles Dodgers,108.20488286629302,Los Angeles Clippers,110.68715710703566
111920,Chabot College,CA,37.64179722,-122.10559170000002,PAC,Oakland Athletics,9.196813868223598,Golden State Warriors,17.708278433294527
111939,Chaffey College,CA,34.147,-117.57,PAC,Los Angeles Angels,29.918035836373267,Los Angeles Clippers,40.53409261055861
111948,Chapman University,CA,33.79277778,-117.8513889,PAC,Los Angeles Angels,1.8753028309774677,Los Angeles Clippers,29.453145488840274
112075,Concordia University-Irvine,CA,33.653575,-117.81138500000002,PAC,Los Angeles Angels,10.934962749433152,Los Angeles Clippers,37.52837270950234
112084,San Diego Christian College,CA,32.84250528,-116.97843219999999,PAC,San Diego Padres,13.942793021616474,Los Angeles Clippers,111.3610065391741
112172,Citrus College,CA,34.13504167,-117.8853889,PAC,Los Angeles Dodgers,20.72674531078555,Los Angeles Clippers,22.75444623503526
112190,City College of San Francisco,CA,37.725716,-122.45017800000001,PAC,San Francisco Giants,4.946311958209402,Golden State Warriors,4.503789053757938
112260,Claremont McKenna College,CA,34.10171,-117.70700000000001,PAC,Los Angeles Angels,23.13566518039636,Los Angeles Clippers,32.31778794779184
112686,El Camino College-Compton Center,CA,33.8775,-118.21083329999999,PAC,Los Angeles Dodgers,13.652654973112964,Los Angeles Clippers,11.886525771682972
112826,Contra Costa College,CA,37.966937,-122.34325600000001,PAC,San Francisco Giants,13.250819703696362,Golden State Warriors,13.951668847639679
113096,Cosumnes River College,CA,38.453908,-121.42308700000001,PAC,Oakland Athletics,64.3503922474665,Sacramento Kings,14.434099788366632
113111,Crafton Hills College,CA,34.04083333,-117.10083329999999,PAC,Los Angeles Angels,47.814039557052354,Los Angeles Clippers,66.77876503003235
113193,Cuesta College,CA,35.32996944,-120.74235279999999,PAC,Los Angeles Dodgers,166.54354888983934,Los Angeles Clippers,166.36653948718111
113218,Cuyamaca College,CA,32.7445,-116.9396,PAC,San Diego Padres,12.872549236487252,Los Angeles Clippers,117.9607606800219
113236,Cypress College,CA,33.828523,-118.02521100000001,PAC,Los Angeles Angels,8.406176930668783,Los Angeles Clippers,20.302181482474587
113333,De Anza College,CA,37.31916667,-122.0452778,PAC,Oakland Athletics,31.070340831851947,Golden State Warriors,36.24134791066545
113634,Diablo Valley College,CA,37.97138889,-122.07,PAC,Oakland Athletics,16.768774310939513,Golden State Warriors,22.299416822381485
113698,Dominican University of California,CA,37.97972222,-122.51333329999999,PAC,San Francisco Giants,15.457597058652981,Golden State Warriors,16.154960670930116
113856,East Los Angeles College,CA,34.0416,-118.15,PAC,Los Angeles Dodgers,5.606501353173812,Los Angeles Clippers,6.712004013609033
113980,El Camino Community College District,CA,33.885881,-118.33045700000001,PAC,Los Angeles Dodgers,13.968000141645486,Los Angeles Clippers,11.448379490474254
114266,Evergreen Valley College,CA,37.30111111,-121.76305559999999,PAC,Oakland Athletics,39.291389016499146,Golden State Warriors,47.02575771060251
114433,Feather River Community College District,CA,39.95065,-120.96985,PAC,Oakland Athletics,165.734958969385,Sacramento Kings,94.57979369617077
114716,Foothill College,CA,37.3613,-122.1289,PAC,Oakland Athletics,27.25583730136173,Golden State Warriors,31.471130683960833
114789,Fresno City College,CA,36.76741667,-119.7978611,PAC,Oakland Athletics,148.59463481218475,Golden State Warriors,158.2814518476463
114813,Fresno Pacific University,CA,36.726,-119.7348,PAC,Oakland Athletics,153.02294550701976,Golden State Warriors,162.689211728011
114859,Fullerton College,CA,33.874417,-117.918548,PAC,Los Angeles Angels,5.518569358076449,Los Angeles Clippers,23.13112641570206
114938,Gavilan College,CA,36.9736,-121.569,PAC,Oakland Athletics,63.975697067438766,Golden State Warriors,70.94333500705714
115126,Golden West College,CA,33.7337969,-118.0031495,PAC,Los Angeles Angels,8.30065120363174,Los Angeles Clippers,26.191355288500294
115296,Grossmont College,CA,32.81611111,-117.0061111,PAC,San Diego Padres,11.531534030984634,Los Angeles Clippers,111.68776943714242
115393,Hartnell College,CA,36.67444444,-121.6663889,PAC,Oakland Athletics,80.02208527791656,Golden State Warriors,85.34342048786384
115728,Holy Names University,CA,37.80202,-122.18715,PAC,Oakland Athletics,3.555277258630099,Golden State Warriors,11.189076383550727
115755,Humboldt State University,CA,40.875780999999996,-124.07856000000001,PAC,San Francisco Giants,232.24966385557906,Sacramento Kings,205.31464061265103
115861,Imperial Valley College,CA,32.828,-115.50399999999999,PAC,San Diego Padres,96.3744725363837,Los Angeles Clippers,180.0793032143178
116439,Irvine Valley College,CA,33.67666667,-117.7777778,PAC,Los Angeles Angels,10.456596960877151,Los Angeles Clippers,37.80803014579466
117052,Reedley College,CA,36.60722222,-119.4602778,PAC,Oakland Athletics,170.30961465246128,Golden State Warriors,179.9724836042171
117104,Life Pacific College,CA,34.0993,-117.829,PAC,Los Angeles Angels,20.8891179997604,Los Angeles Clippers,25.38001374941651
117140,University of La Verne,CA,34.101290000000006,-117.77095,PAC,Los Angeles Angels,21.76314473309159,Los Angeles Clippers,28.686348907371787
117195,Lake Tahoe Community College,CA,38.92611111,-119.97194440000001,PAC,Oakland Athletics,145.4978459753023,Sacramento Kings,85.43723512646449
117247,Laney College,CA,37.79637,-122.2628,PAC,Oakland Athletics,4.593038881741396,Golden State Warriors,7.085015923408842
117274,Lassen Community College,CA,40.43138889,-120.6327778,PAC,Oakland Athletics,203.33557806787323,Sacramento Kings,131.86320670489627
117627,La Sierra University,CA,33.91138889,-117.50166670000002,PAC,Los Angeles Angels,23.175855423274314,Los Angeles Clippers,44.79690113770339
117645,Long Beach City College,CA,33.83416667,-118.13555559999999,PAC,Los Angeles Angels,14.698158908983416,Los Angeles Clippers,16.287160086300055
117690,Los Angeles Harbor College,CA,33.784,-118.28399999999999,PAC,Los Angeles Dodgers,20.168585374679637,Los Angeles Clippers,17.924899959677422
117706,Los Angeles Pierce College,CA,34.183921000000005,-118.57505309999999,PAC,Los Angeles Dodgers,20.623092810048774,Los Angeles Clippers,20.12001148292024
117715,Los Angeles Southwest College,CA,33.929358,-118.30539499999999,PAC,Los Angeles Dodgers,10.647587370322178,Los Angeles Clippers,8.154511463582653
117724,Los Angeles Trade Technical College,CA,34.0315,-118.2706,PAC,Los Angeles Dodgers,3.3962154600016157,Los Angeles Clippers,0.8215349626469999
117733,Los Angeles Valley College,CA,34.17577,-118.421097,PAC,Los Angeles Dodgers,12.534519195662293,Los Angeles Clippers,12.71106086279316
117867,Los Angeles Mission College,CA,34.315309,-118.41941399999999,PAC,Los Angeles Dodgers,19.596265745380226,Los Angeles Clippers,20.72502848557673
117894,Los Medanos College,CA,38.006,-121.86,PAC,Oakland Athletics,25.56837103850917,Golden State Warriors,33.13132389055455
117946,Loyola Marymount University,CA,33.97,-118.41799999999999,PAC,Los Angeles Dodgers,12.456104170386256,Los Angeles Clippers,10.003029824435018
118347,College of Marin,CA,37.955568,-122.54888500000001,PAC,San Francisco Giants,15.012802881075672,Golden State Warriors,15.66374190048523
118541,Marymount California University,CA,33.735217,-118.33378300000001,PAC,Los Angeles Dodgers,23.99135377190427,Los Angeles Clippers,21.60954330907466
118684,Mendocino College,CA,39.18944444,-123.2272222,PAC,San Francisco Giants,107.50056248718982,Sacramento Kings,99.17102993018223
118693,Menlo College,CA,37.455,-122.193,PAC,Oakland Athletics,20.501886828175305,Golden State Warriors,24.107905065433993
118718,Merced College,CA,37.335,-120.4741,PAC,Oakland Athletics,98.86412426654971,Sacramento Kings,107.12467496264011
118772,Merritt College,CA,37.78881111,-122.16639170000002,PAC,Oakland Athletics,3.173046711928144,Golden State Warriors,12.159677636618113
118912,MiraCosta College,CA,33.19,-117.3022222,PAC,San Diego Padres,34.403524317099645,Los Angeles Clippers,80.9740912325048
118976,Modesto Junior College,CA,37.65,-121.0,PAC,Oakland Athletics,66.00601550782405,Sacramento Kings,74.55358384254772
119067,Monterey Peninsula College,CA,36.59222222,-121.88361110000001,PAC,Oakland Athletics,81.98820724110341,Golden State Warriors,85.84689759205766
119137,Moorpark College,CA,34.29990556,-118.835075,PAC,Los Angeles Dodgers,37.433079604021856,Los Angeles Clippers,36.99564803691901
119164,Mt San Antonio College,CA,34.04715,-117.84528,PAC,Los Angeles Angels,17.192191024007865,Los Angeles Clippers,24.15807526944261
119216,Mt San Jacinto Community College District,CA,33.80722222,-116.97166670000001,PAC,Los Angeles Angels,52.31169043991057,Los Angeles Clippers,76.04182612241227
119331,Napa Valley College,CA,38.27472222,-122.27555559999999,PAC,San Francisco Giants,34.83126014160589,Golden State Warriors,35.53360954795711
120184,Notre Dame de Namur University,CA,37.51729,-122.28443,PAC,Oakland Athletics,16.831629186008534,Golden State Warriors,18.220823230170787
120254,Occidental College,CA,34.12715,-118.2109,PAC,Los Angeles Dodgers,4.05658488155667,Los Angeles Clippers,6.644355291443583
120290,Ohlone College,CA,37.53052222,-121.91445829999999,PAC,Oakland Athletics,21.874156444218553,Golden State Warriors,30.643524435864048
120342,Orange Coast College,CA,33.67055556,-117.91194440000001,PAC,Los Angeles Angels,9.118282336687923,Los Angeles Clippers,32.832163188322234
120421,Oxnard College,CA,34.16416111,-119.15733059999998,PAC,Los Angeles Dodgers,52.8434788040678,Los Angeles Clippers,51.60677134826278
120537,Hope International University,CA,33.87655861,-117.88541609999999,PAC,Los Angeles Angels,5.272677821346294,Los Angeles Clippers,24.720389271800865
120865,Pacific Union College,CA,38.5693,-122.4413,PAC,San Francisco Giants,54.70473532365528,Sacramento Kings,50.151142870118726
120971,Palomar College,CA,33.1494,-117.1848,PAC,San Diego Padres,30.589948547069593,Los Angeles Clippers,87.70998054809705
121044,Pasadena City College,CA,34.15,-118.11666670000001,PAC,Los Angeles Dodgers,8.811065263185302,Los Angeles Clippers,11.349129666078833
121150,Pepperdine University,CA,34.03868333,-118.70758059999999,PAC,Los Angeles Dodgers,26.87433673208228,Los Angeles Clippers,25.21384699700419
121309,Point Loma Nazarene University,CA,32.716853,-117.25068600000002,PAC,San Diego Padres,5.509369824307223,Los Angeles Clippers,108.79259939171484
121345,Pomona College,CA,34.09805556,-117.7138889,PAC,Los Angeles Angels,22.737847736896747,Los Angeles Clippers,31.896284271562447
121363,Porterville College,CA,36.048771,-119.014633,PAC,Los Angeles Dodgers,143.32842091582577,Los Angeles Clippers,144.88574191487436
121691,University of Redlands,CA,34.06305556,-117.1638889,PAC,Los Angeles Angels,45.0338401067205,Los Angeles Clippers,63.175374442954656
121707,College of the Redwoods,CA,40.69777778,-124.19833329999999,PAC,San Francisco Giants,223.7141076166447,Sacramento Kings,200.85940172338454
121886,Rio Hondo College,CA,34.01888889,-118.0336111,PAC,Los Angeles Dodgers,12.405924288201895,Los Angeles Clippers,13.480407505257286
122180,Sacramento City College,CA,38.541578,-121.491075,PAC,Oakland Athletics,66.81952667424865,Sacramento Kings,7.575134139150293
122205,Saddleback College,CA,33.5525,-117.66666670000001,PAC,Los Angeles Angels,21.154046222186384,Los Angeles Clippers,48.35092503795264
122339,San Diego City College,CA,32.71745,-117.15255,PAC,San Diego Padres,0.7397661496743033,Los Angeles Clippers,111.91234910454263
122375,San Diego Mesa College,CA,32.80444444,-117.1702778,PAC,San Diego Padres,6.758931706198777,Los Angeles Clippers,106.41895769874125
122384,San Diego Miramar College,CA,32.90714444,-117.12075,PAC,San Diego Padres,13.964005280850103,Los Angeles Clippers,102.59219758621082
122409,San Diego State University,CA,32.77527778,-117.07222220000001,PAC,San Diego Padres,6.7901630376732856,Los Angeles Clippers,111.45774487537423
122436,University of San Diego,CA,32.77111111,-117.1875,PAC,San Diego Padres,4.760633326689507,Los Angeles Clippers,107.70942977384532
122597,San Francisco State University,CA,37.72333333,-122.47972220000001,PAC,San Francisco Giants,6.249896593497002,Golden State Warriors,5.9105915377400535
122612,University of San Francisco,CA,37.77944444,-122.45194440000002,PAC,San Francisco Giants,3.4287741601107777,Golden State Warriors,3.606447563827848
122746,San Jose City College,CA,37.3148,-121.928,PAC,Oakland Athletics,33.67670723400617,Golden State Warriors,40.18036374203767
122755,San Jose State University,CA,37.3353,-121.8813,PAC,Oakland Athletics,33.66754746299412,Golden State Warriors,40.77863324722467
122791,College of San Mateo,CA,37.53611111,-122.3361111,PAC,Oakland Athletics,16.637767223711567,Golden State Warriors,16.27055507472927
122889,Santa Barbara City College,CA,34.40648889,-119.6985361,PAC,Los Angeles Dodgers,86.42519519120512,Los Angeles Clippers,85.53744600454255
122931,Santa Clara University,CA,37.34916667,-121.93805559999998,PAC,Oakland Athletics,31.307584540203994,Golden State Warriors,37.995582824190045
122977,Santa Monica College,CA,34.0168,-118.4707,PAC,Los Angeles Dodgers,13.778642569533288,Los Angeles Clippers,11.791705129546967
123013,Santa Rosa Junior College,CA,38.4553,-122.7197611,PAC,San Francisco Giants,50.0894144140404,Golden State Warriors,50.80342487069285
123217,College of the Sequoias,CA,36.3238,-119.3152,PAC,Los Angeles Dodgers,166.90097971212853,Los Angeles Clippers,168.32693373882825
123341,Sierra College,CA,38.788637,-121.209496,PAC,Oakland Athletics,89.57297229909581,Sacramento Kings,19.22366598987568
123457,Simpson University,CA,40.613,-122.333,PAC,San Francisco Giants,195.86069921909177,Sacramento Kings,142.44736548797005
123484,College of the Siskiyous,CA,41.41222222,-122.38916670000002,PAC,San Francisco Giants,251.05861690203133,Sacramento Kings,196.38950295348388
123509,Skyline College,CA,37.62916667,-122.46805559999999,PAC,San Francisco Giants,11.190004353164868,Golden State Warriors,10.558609323187984
123527,San Bernardino Valley College,CA,34.08722222,-117.31055559999999,PAC,Los Angeles Angels,38.32553739482652,Los Angeles Clippers,54.841553864310214
123554,Saint Mary's College of California,CA,37.84138889,-122.10916670000002,PAC,Oakland Athletics,7.957765272096416,Golden State Warriors,16.017028735361848
123563,Solano Community College,CA,38.232703,-122.126319,PAC,Oakland Athletics,33.4813610811093,Golden State Warriors,35.11243571391329
123572,Sonoma State University,CA,38.33972222,-122.67527779999999,PAC,San Francisco Giants,41.77690258535864,Golden State Warriors,42.48829381414055
123651,Vanguard University of Southern California,CA,33.663000000000004,-117.9,PAC,Los Angeles Angels,9.536476732357508,Los Angeles Clippers,33.66815908629007
123961,University of Southern California,CA,34.02166667,-118.28527779999999,PAC,Los Angeles Dodgers,4.427195462682355,Los Angeles Clippers,1.803592008852604
124113,Taft College,CA,35.14944444,-119.46,PAC,Los Angeles Dodgers,101.67593213981942,Los Angeles Clippers,102.20378713522057
125028,Ventura College,CA,34.2776,-119.2317,PAC,Los Angeles Dodgers,58.41347838078916,Los Angeles Clippers,57.47350107203884
125091,Victor Valley College,CA,34.47361111,-117.9122222,PAC,Los Angeles Dodgers,33.37757842837678,Los Angeles Clippers,35.99933937102203
125462,West Hills College-Coalinga,CA,36.14972222,-120.35694440000002,PAC,Oakland Athletics,150.37101618652636,Golden State Warriors,158.3295190583718
125471,West Los Angeles College,CA,34.00411389,-118.3866,PAC,Los Angeles Dodgers,9.670007864707726,Los Angeles Clippers,7.346641495791393
125499,West Valley College,CA,37.263428999999995,-122.01,PAC,Oakland Athletics,35.31382013050157,Golden State Warriors,40.54221772808469
125727,Westmont College,CA,34.4497888,-119.6593305,PAC,Los Angeles Dodgers,85.11402049483078,Los Angeles Clippers,84.3287022956653
125763,Whittier College,CA,33.97809,-118.0296,PAC,Los Angeles Dodgers,13.737500000930124,Los Angeles Clippers,14.330670362900113
126580,University of Colorado Colorado Springs,CO,38.892212,-104.79948329999999,MNT,Colorado Rockies,60.589897603168495,Denver Nuggets,60.207077895829556
126614,University of Colorado Boulder,CO,40.00666667,-105.2672222,MNT,Colorado Rockies,22.567542189268742,Denver Nuggets,22.528999713665453
126669,Colorado Christian University,CO,39.71275,-105.0945,MNT,Colorado Rockies,6.115263814956407,Denver Nuggets,5.245046247383452
126678,Colorado College,CO,38.848,-104.823,MNT,Colorado Rockies,63.4083435152282,Denver Nuggets,63.003355364567085
126711,Colorado Mountain College,CO,39.5465,-107.3244,MNT,Colorado Rockies,124.80308359684275,Denver Nuggets,124.04590828633387
126775,Colorado School of Mines,CO,39.75111111,-105.2225,MNT,Colorado Rockies,12.133781163110791,Denver Nuggets,11.422537458434913
126818,Colorado State University-Fort Collins,CO,40.57483611,-105.0809778,MNT,Colorado Rockies,56.75389796288441,Denver Nuggets,57.21840463728989
127060,University of Denver,CO,39.67833333,-104.96222220000001,MNT,Colorado Rockies,5.63573786340521,Denver Nuggets,5.4193530865119515
127185,Fort Lewis College,CO,37.275,-107.86999899999999,MNT,Colorado Rockies,231.40047088764743,Denver Nuggets,230.5381980263821
127389,Lamar Community College,CO,38.07023,-102.61655999999999,MNT,Colorado Rockies,172.92440633970423,Denver Nuggets,173.11232678138717
127556,Colorado Mesa University,CO,39.08061,-108.55456000000001,MNT,Colorado Rockies,195.67429813250632,Denver Nuggets,194.86994683229128
127565,Metropolitan State University of Denver,CO,39.744,-105.0115,MNT,Colorado Rockies,1.2442112726885555,Denver Nuggets,0.38295597075620635
127741,University of Northern Colorado,CO,40.404853,-104.696741,MNT,Colorado Rockies,47.50158876441587,Denver Nuggets,48.22673463002963
127778,Otero Junior College,CO,37.9716,-103.54538000000001,MNT,Colorado Rockies,145.86272114789955,Denver Nuggets,145.8128310264031
127918,Regis University,CO,39.78925833,-105.03325559999999,MNT,Colorado Rockies,3.0909842698407437,Denver Nuggets,3.1238389973476792
128106,Colorado State University-Pueblo,CO,38.3075,-104.5783333,MNT,Colorado Rockies,102.54725202062971,Denver Nuggets,102.20068496786838
128258,Trinidad State Junior College,CO,37.17277778,-104.5127778,MNT,Colorado Rockies,180.38032351276283,Denver Nuggets,179.97357427833535
128391,Western State Colorado University,CO,38.549,-106.92,MNT,Colorado Rockies,132.6718540902528,Denver Nuggets,131.79487652935586
128498,Albertus Magnus College,CT,41.332418,-72.923909,NE,New York Mets,62.36087872515966,New York Knicks,68.72877770661535
128744,University of Bridgeport,CT,41.165859999999995,-73.19109,NE,New York Mets,44.33131748089818,New York Knicks,50.762330825901394
128771,Central Connecticut State University,CT,41.69318,-72.76496,NE,New York Yankees,84.86663779250789,New York Knicks,91.20615863975962
128902,Connecticut College,CT,41.37843333,-72.10466944,NE,Boston Red Sox,84.5928222363157,Boston Celtics,86.80432149858935
129020,University of Connecticut,CT,41.80722222,-72.2525,NE,Boston Red Sox,69.95722063032599,Boston Celtics,72.22897820519151
129215,Eastern Connecticut State University,CT,41.71946,-72.21749,NE,Boston Red Sox,71.95527145659246,Boston Celtics,74.23742740755513
129242,Fairfield University,CT,41.16016944,-73.25806667,NE,New York Mets,41.433549870371074,New York Knicks,47.68723699742101
129525,University of Hartford,CT,41.800911,-72.714021,NE,Boston Red Sox,91.05335583922032,Boston Celtics,93.2742742691197
129774,Mitchell College,CT,41.3296,-72.0929,NE,Boston Red Sox,86.93773815498406,Boston Celtics,89.13200911495234
129941,University of New Haven,CT,41.2918592,-72.9621902,NE,New York Mets,59.05517830754494,New York Knicks,65.49458639933715
130183,Post University,CT,41.5352,-73.0795,NE,New York Yankees,65.71953384515018,New York Knicks,72.11973761976044
130226,Quinnipiac University,CT,41.42014,-72.89454,NE,New York Yankees,67.46348735832939,New York Knicks,73.5954188607935
130253,Sacred Heart University,CT,41.22139,-73.24194,NE,New York Yankees,44.80238405060394,New York Knicks,50.94370889648219
130314,University of Saint Joseph,CT,41.78111111,-72.73055556,NE,New York Yankees,90.43310755129646,Boston Celtics,94.63326687664323
130396,Gateway Community College,CT,41.2872,-72.9274,NE,New York Mets,60.28538597791021,New York Knicks,66.81378996146384
130493,Southern Connecticut State University,CT,41.3325,-72.9475,NE,New York Mets,61.42251850069986,New York Knicks,67.73884209328848
130697,Wesleyan University,CT,41.555620000000005,-72.65584399999999,NE,New York Mets,82.92874209567921,New York Knicks,89.09194018890678
130776,Western Connecticut State University,CT,41.399954,-73.443584,NE,New York Yankees,46.764737612397404,New York Knicks,53.23487431438261
130794,Yale University,CT,41.31111111,-72.92666667,NE,New York Mets,61.326477987661114,New York Knicks,67.76760363317975
130934,Delaware State University,DE,39.1861,-75.5426,SA,Philadelphia Phillies,53.6162954378281,Philadelphia 76ers,53.203498776876806
130943,University of Delaware,DE,39.67833333,-75.75111111,SA,Philadelphia Phillies,34.79530962895278,Philadelphia 76ers,34.38611301678892
130989,Goldey-Beacom College,DE,39.74202778,-75.68952778,SA,Philadelphia Phillies,29.978734059918434,Philadelphia 76ers,29.584081021401996
131159,American University,DC,38.9371,-77.0869,SA,Washington Nationals,6.162547865050935,Washington Wizards,4.460005208549998
131283,Catholic University of America,DC,38.9329387,-76.9977828,SA,Washington Nationals,4.189432491126266,Washington Wizards,2.710063576944272
131399,University of the District of Columbia,DC,38.94394444,-77.06533333,SA,Washington Nationals,5.817801733216459,Washington Wizards,3.971771974967136
131450,Gallaudet University,DC,38.907222,-76.99305600000001,SA,Washington Nationals,2.503431743982714,Washington Wizards,1.6222786810146552
131469,George Washington University,DC,38.9007,-77.0508,SA,Washington Nationals,3.0240704892355894,Washington Wizards,1.6217064057544721
131496,Georgetown University,DC,38.90722222,-77.07277778,SA,Washington Nationals,4.241226092113852,Washington Wizards,2.863947477611673
131520,Howard University,DC,38.92222222,-77.01944444,SA,Washington Nationals,3.4761395536525375,Washington Wizards,1.6713948576044255
131876,Trinity Washington University,DC,38.9275,-77.00487199999999,SA,Washington Nationals,3.7835851046029636,Washington Wizards,2.207951784097174
132471,Barry University,FL,25.87883611,-80.19726944,SA,Miami Marlins,7.101901260241208,Miami Heat,6.75729115127197
132602,Bethune-Cookman University,FL,29.210255600000004,-81.0306086,SA,Tampa Bay Rays,140.12544879252255,Orlando Magic,51.05020339951637
132657,Lynn University,FL,26.384,-80.125,SA,Miami Marlins,42.27741807592678,Miami Heat,41.81992571784823
132693,Eastern Florida State College,FL,28.16997222,-80.66891111,SA,Tampa Bay Rays,124.23330227684069,Orlando Magic,50.39010563478768
132709,Broward College,FL,26.08031,-80.23441,SA,Miami Marlins,20.903726195413476,Miami Heat,20.85334862107028
132851,College of Central Florida,FL,29.165432899999995,-82.17503590000001,SA,Tampa Bay Rays,100.80688872216422,Orlando Magic,64.54598345166097
132879,Johnson University Florida,FL,28.30280556,-81.3625,SA,Tampa Bay Rays,86.95280458309308,Orlando Magic,16.38132667754292
132903,University of Central Florida,FL,28.6016,-81.2005,SA,Tampa Bay Rays,105.55955261066345,Orlando Magic,11.919144079173053
133021,Chipola College,FL,30.787468,-85.232784,SA,Atlanta Braves,218.96193243079978,Atlanta Hawks,210.92519927047374
133386,Daytona State College,FL,29.201559200000002,-81.051315,SA,Tampa Bay Rays,138.81772429529752,Orlando Magic,49.98852640929978
133492,Eckerd College,FL,27.71709722,-82.68840556,SA,Tampa Bay Rays,4.139068145729718,Orlando Magic,97.70886697696209
133508,Florida SouthWestern State College,FL,26.551347999999997,-81.887241,SA,Tampa Bay Rays,96.3754603822086,Miami Heat,118.0368596012145
133526,Edward Waters College,FL,30.3453,-81.6847,SA,Tampa Bay Rays,187.41333287603587,Orlando Magic,126.09986548454683
133553,Embry-Riddle Aeronautical University-Daytona Beach,FL,29.188570000000002,-81.04871,SA,Tampa Bay Rays,138.29464234342336,Orlando Magic,49.23336225431324
133650,Florida Agricultural and Mechanical University,FL,30.4178,-84.2845,SA,Tampa Bay Rays,207.8621948180528,Orlando Magic,217.4540461604766
133669,Florida Atlantic University,FL,26.371,-80.102,SA,Miami Marlins,41.61489584159446,Miami Heat,41.08681726219377
133702,Florida State College at Jacksonville,FL,30.33472222,-81.65972222,SA,Tampa Bay Rays,187.19813011071483,Orlando Magic,125.16845391633102
133809,Florida College,FL,28.034559299999998,-82.383495,SA,Tampa Bay Rays,24.69491111761582,Orlando Magic,70.11763531496595
133881,Florida Institute of Technology,FL,28.06577222,-80.62448333,SA,Tampa Bay Rays,125.55851475038568,Orlando Magic,56.59030140963989
133951,Florida International University,FL,25.756999999999998,-80.374,SA,Miami Marlins,9.709256381526634,Miami Heat,11.69192779287706
133979,Florida Memorial University,FL,25.9181747,-80.27046209999999,SA,Miami Marlins,10.182440331090824,Miami Heat,10.750659220296267
134079,Florida Southern College,FL,28.03138,-81.94745,SA,Tampa Bay Rays,46.77797406856491,Orlando Magic,49.06958384849263
134097,Florida State University,FL,30.441999999999997,-84.29799999999999,SA,Tampa Bay Rays,209.71511796036285,Orlando Magic,219.08809707809743
134130,University of Florida,FL,29.648329999999998,-82.34944,SA,Tampa Bay Rays,131.1941521441039,Orlando Magic,96.29733912408038
134237,Full Sail University,FL,28.59472222,-81.30305556,SA,Tampa Bay Rays,100.11296460785637,Orlando Magic,6.215235356278205
134343,Gulf Coast State College,FL,30.1869327,-85.7262785,SA,Tampa Bay Rays,249.82587512732366,Atlanta Hawks,258.6973035879342
134495,Hillsborough Community College,FL,28.026749,-82.10368670000001,SA,Tampa Bay Rays,38.01707182119144,Orlando Magic,56.329736490030584
134608,Indian River State College,FL,27.423693,-80.357928,SA,Miami Marlins,114.02281383963974,Orlando Magic,99.27999804677674
134945,Jacksonville University,FL,30.3532,-81.6045,SA,Tampa Bay Rays,189.49442294669572,Orlando Magic,126.04029396821804
135160,Florida Gateway College,FL,30.1749015,-82.5686247,SA,Tampa Bay Rays,166.35682224761445,Orlando Magic,133.66010296591895
135188,Lake-Sumter State College,FL,28.8291359,-81.7971556,SA,Tampa Bay Rays,89.91614161489156,Orlando Magic,32.08946923101154
135717,Miami Dade College,FL,25.77777778,-80.19055556,SA,Miami Marlins,1.8147836515242877,Miami Heat,0.2940081927774763
135726,University of Miami,FL,25.721644,-80.279267,SA,Miami Marlins,5.37804702485356,Miami Heat,7.018511890631787
136172,University of North Florida,FL,30.26833333,-81.50833333,SA,Tampa Bay Rays,186.06809911803995,Orlando Magic,119.70961910690575
136215,Nova Southeastern University,FL,26.07777778,-80.24194444,SA,Miami Marlins,20.754819716465686,Miami Heat,20.75047148769526
136233,Northwest Florida State College,FL,30.5394163,-86.47564399999999,SA,Atlanta Braves,259.53477953613447,New Orleans Pelicans,219.07815414505058
136330,Palm Beach Atlantic University,FL,26.7036016,-80.05139670000001,SA,Miami Marlins,64.7943454486569,Miami Heat,64.27916015142802
136400,Pasco-Hernando State College,FL,28.3792485,-82.2175365,SA,Tampa Bay Rays,49.87529050915103,Orlando Magic,51.846850805013
136473,Pensacola State College,FL,30.48098,-87.20142,SA,Atlanta Braves,284.62258205762083,New Orleans Pelicans,175.8661679283587
136516,Polk State College,FL,27.9906672,-81.8900359,SA,Tampa Bay Rays,49.08332625121516,Orlando Magic,48.84679436796752
136950,Rollins College,FL,28.591459999999998,-81.34835,SA,Tampa Bay Rays,97.72942428942623,Orlando Magic,4.199164988293293
137032,Saint Leo University,FL,28.33777778,-82.25694444,SA,Tampa Bay Rays,46.1757966810323,Orlando Magic,54.85413291746954
137078,St Petersburg College,FL,27.778574,-82.7326912,SA,Tampa Bay Rays,4.902762131818104,Orlando Magic,97.54503213274988
137096,Santa Fe College,FL,29.681372399999997,-82.4332952,SA,Tampa Bay Rays,132.84897353865617,Orlando Magic,101.20792472759739
137209,Seminole State College of Florida,FL,28.74438,-81.30552,SA,Tampa Bay Rays,106.18932105746374,Orlando Magic,14.948701431043535
137315,South Florida State College,FL,27.5690903,-81.5095795,SA,Tampa Bay Rays,71.32976690395665,Orlando Magic,67.46456783629829
137351,University of South Florida-Main Campus,FL,28.05456111,-82.41305833,SA,Tampa Bay Rays,24.62361630809254,Orlando Magic,71.01671936987417
137546,Stetson University,FL,29.034971999999996,-81.30264,SA,Tampa Bay Rays,119.98948410138178,Orlando Magic,34.6059728693127
137564,Southeastern University,FL,28.0286214,-81.9173312,SA,Tampa Bay Rays,48.40726491395094,Orlando Magic,47.94672112077498
137759,Tallahassee Community College,FL,30.44527,-84.34062,SA,Tampa Bay Rays,211.14202229764146,Orlando Magic,221.2755457213979
137847,The University of Tampa,FL,27.947156,-82.46535300000001,SA,Tampa Bay Rays,16.86762770122158,Orlando Magic,77.51358283717393
137962,Trinity College of Florida,FL,28.194838,-82.678308,SA,Tampa Bay Rays,29.50803986497023,Orlando Magic,82.22970658737775
138275,Warner University,FL,27.8263,-81.6022,SA,Tampa Bay Rays,64.37003398158535,Orlando Magic,51.02172993129588
138293,Webber International University,FL,27.8398,-81.5359,SA,Tampa Bay Rays,68.47158156431182,Orlando Magic,49.20355854876112
138354,The University of West Florida,FL,30.549493,-87.21812,SA,Atlanta Braves,281.24099504608495,New Orleans Pelicans,175.88905160057578
138558,Abraham Baldwin Agricultural College,GA,31.475,-83.523,SA,Atlanta Braves,175.6746427488153,Atlanta Hawks,165.67393185187282
138682,Albany Technical College,GA,31.55349167,-84.174525,SA,Atlanta Braves,162.33591061792234,Atlanta Hawks,152.80912007889734
138716,Albany State University,GA,31.569000000000003,-84.14200000000001,SA,Atlanta Braves,161.48104029954706,Atlanta Hawks,151.91390503794568
138868,Point University,GA,32.8791,-85.1869,SA,Atlanta Braves,81.23195871072022,Atlanta Hawks,75.92228569522631
138947,Clark Atlanta University,GA,33.75083333,-84.41027778,SA,Atlanta Braves,10.170359936468767,Atlanta Hawks,0.9118267639796249
139199,Brenau University,GA,34.304,-83.819,SA,Atlanta Braves,46.87280845110739,Atlanta Hawks,50.20235433176068
139205,Brewton-Parker College,GA,32.184329999999996,-82.5832,SA,Atlanta Braves,160.6390767065428,Atlanta Hawks,151.17991886454178
139250,College of Coastal Georgia,GA,31.18416667,-81.48472222,SA,Tampa Bay Rays,246.25093134195052,Orlando Magic,182.8524353873956
139311,Clayton  State University,GA,33.59444444,-84.32833333,SA,Atlanta Braves,21.940975551508963,Atlanta Hawks,11.908159231160736
139366,Columbus State University,GA,32.501419,-84.942226,SA,Atlanta Braves,99.78240966090354,Atlanta Hawks,92.33649547095585
139393,Covenant College,GA,34.966,-85.374,SA,Atlanta Braves,90.51485602364878,Atlanta Hawks,100.41977276133419
139463,Dalton State College,GA,34.775,-85.00299999999999,SA,Atlanta Braves,68.342961313067,Atlanta Hawks,78.38920723519581
139621,East Georgia State College,GA,32.59527778,-82.30833333,SA,Atlanta Braves,153.5431783440916,Atlanta Hawks,145.0003145330981
139658,Emory University,GA,33.79111111,-84.32333333,SA,Atlanta Braves,10.752217027535611,Atlanta Hawks,4.804935676525944
139700,Georgia Highlands College,GA,34.169757000000004,-85.20744300000001,SA,Atlanta Braves,46.54441004064931,Atlanta Hawks,54.521700847669415
139719,Fort Valley State University,GA,32.53441667,-83.89605556,SA,Atlanta Braves,99.32545423356211,Atlanta Hawks,89.30792524362069
139755,Georgia Institute of Technology-Main Campus,GA,33.77583333,-84.39472222,SA,Atlanta Braves,8.939282291133406,Atlanta Hawks,1.2894792893879568
139764,Georgia Southwestern State University,GA,32.056999999999995,-84.21799999999999,SA,Atlanta Braves,127.47440829194137,Atlanta Hawks,117.9289525155707
139931,Georgia Southern University,GA,32.419447999999996,-81.776698,SA,Atlanta Braves,185.88942320931685,Atlanta Hawks,177.58866049882076
139940,Georgia State University,GA,33.75369444,-84.38597222,SA,Atlanta Braves,10.529241631317245,Atlanta Hawks,0.6461292783989341
139959,University of Georgia,GA,33.9558,-83.3745,SA,Atlanta Braves,62.85793751482787,Atlanta Hawks,60.217175358908555
139968,Gordon State College,GA,33.047378,-84.15133900000001,SA,Atlanta Braves,61.013304823636865,Atlanta Hawks,51.041652212880635
140252,Life University,GA,33.9325,-84.5145,SA,Atlanta Braves,3.966392478608213,Atlanta Hawks,13.878212090794376
140447,Mercer University,GA,32.82916667,-83.64861111,SA,Atlanta Braves,87.2251908976361,Atlanta Hawks,77.30899782476409
140696,Oglethorpe University,GA,33.875,-84.333,SA,Atlanta Braves,7.8126680828153745,Atlanta Hawks,8.914201189346503
140720,Paine College,GA,33.469487,-81.993402,SA,Atlanta Braves,145.21198647229934,Charlotte Hornets,138.0106545956857
140818,Piedmont College,GA,34.566,-83.542,SA,Atlanta Braves,70.56779261814967,Atlanta Hawks,74.2201616996023
140872,Reinhardt University,GA,34.319,-84.553,SA,Atlanta Braves,30.037324881499636,Atlanta Hawks,39.837408285423265
140951,Savannah College of Art and Design,GA,32.073,-81.0961,SA,Atlanta Braves,232.25805807773907,Charlotte Hornets,218.2829766651511
140960,Savannah State University,GA,32.025,-81.06388889,SA,Atlanta Braves,235.67185296705645,Charlotte Hornets,221.47640165905142
140988,Shorter University,GA,34.258,-85.196,SA,Atlanta Braves,48.80970929963294,Atlanta Hawks,57.39902056775333
141006,South Georgia Technical College,GA,32.11753,-84.18845,SA,Atlanta Braves,123.53243022621248,Atlanta Hawks,113.93169640930793
141167,Thomas University,GA,30.816,-83.9686,SA,Atlanta Braves,214.38299215525714,Atlanta Hawks,204.74878886589187
141185,Toccoa Falls College,GA,34.5957,-83.3516,SA,Atlanta Braves,80.27012930948202,Atlanta Hawks,83.20337963382032
141237,Truett McConnell University,GA,34.596,-83.74799999999999,SA,Atlanta Braves,63.80132354326132,Atlanta Hawks,68.7915234814022
141264,Valdosta State University,GA,30.846970000000002,-83.28959,SA,Tampa Bay Rays,216.13855411213083,Orlando Magic,196.23660275660245
141361,Young Harris College,GA,34.932809999999996,-83.84676,SA,Atlanta Braves,80.2827149855261,Atlanta Hawks,87.0666862405618
141486,Chaminade University of Honolulu,HI,21.28968333,-157.8068667,oth,San Francisco Giants,2394.4072557202185,Golden State Warriors,2394.265246259712
141565,University of Hawaii at Hilo,HI,19.6996,-155.0816,oth,San Francisco Giants,2322.7865595825065,Golden State Warriors,2322.581845522992
141574,University of Hawaii at Manoa,HI,21.296999999999997,-157.817,oth,San Francisco Giants,2394.633289207409,Golden State Warriors,2394.4915340053335
141644,Hawaii Pacific University,HI,21.311,-157.859,oth,San Francisco Giants,2396.239255187976,Golden State Warriors,2396.098262285224
142115,Boise State University,ID,43.604,-116.204,MNT,Seattle Mariners,404.342268383058,Utah Jazz,294.73754272059773
142276,Idaho State University,ID,42.861000000000004,-112.434,MNT,Colorado Rockies,441.4831529091676,Utah Jazz,147.16955272495684
142285,University of Idaho,ID,46.726000000000006,-117.01100000000001,MNT,Seattle Mariners,257.0225082870126,Portland Trail Blazers,283.0371872340895
142294,The College of Idaho,ID,43.653,-116.676,MNT,Seattle Mariners,385.49741116131275,Utah Jazz,315.24210054907644
142328,Lewis-Clark State College,ID,46.411,-117.02600000000001,MNT,Seattle Mariners,262.960548843923,Portland Trail Blazers,277.5355310893097
142443,North Idaho College,ID,47.675653999999994,-116.79898,MNT,Seattle Mariners,257.6765122718673,Portland Trail Blazers,315.36160845953196
142461,Northwest Nazarene University,ID,43.562,-116.565,MNT,Seattle Mariners,393.88276540512317,Utah Jazz,307.0096914232014
142559,College of Southern Idaho,ID,42.58,-114.475,MNT,Seattle Mariners,516.0727320175484,Utah Jazz,182.5029881654099
143118,Aurora University,IL,41.75472222,-88.34777778,ENC,Chicago White Sox,37.140880848125086,Chicago Bulls,35.759366991896925
143215,Southwestern Illinois College,IL,38.51658333,-89.92352778,ENC,St. Louis Cardinals,16.29576150515117,Indiana Pacers,219.51991226307857
143279,Black Hawk College,IL,41.52861111,-90.41083333,ENC,Chicago White Sox,144.80092786041038,Chicago Bulls,143.240965530368
143358,Bradley University,IL,40.698056,-89.61694399999999,ENC,Chicago White Sox,129.31564609338352,Chicago Bulls,129.79486101820928
143613,Carl Sandburg College,IL,40.98166667,-90.4075,ENC,Chicago White Sox,155.2190649043889,Chicago Bulls,154.60699823942787
144005,Chicago State University,IL,41.717646,-87.60974399999999,ENC,Chicago White Sox,7.86198878260212,Chicago Bulls,11.734944214321871
144050,University of Chicago,IL,41.78972222,-87.59972222,ENC,Chicago White Sox,3.2925336016186213,Chicago Bulls,7.353594731925485
144351,Concordia University-Chicago,IL,41.89967,-87.80954,ENC,Chicago Cubs,8.592993801790586,Chicago Bulls,7.087045401560171
144564,Danville Area Community College,IL,40.129261,-87.58788299999999,ENC,Chicago White Sox,117.53436810986459,Indiana Pacers,79.95893745855042
144740,DePaul University,IL,41.924,-87.656,ENC,Chicago Cubs,1.6622378693770241,Chicago Bulls,3.1437202583610313
144865,College of DuPage,IL,41.84166667,-88.07166667,ENC,Chicago White Sox,22.55060685959541,Chicago Bulls,20.63038421989419
144892,Eastern Illinois University,IL,39.48444444,-88.17527778,ENC,St. Louis Cardinals,123.55855774743925,Indiana Pacers,109.20499661180821
144944,Elgin Community College,IL,42.01805556,-88.32222222,ENC,Chicago Cubs,34.57986799369512,Chicago Bulls,34.63032502912821
144962,Elmhurst College,IL,41.89611111,-87.94611111,ENC,Chicago Cubs,15.362354893558233,Chicago Bulls,14.029055359545735
144971,Eureka College,IL,40.714,-89.26799999999999,ENC,Chicago White Sox,114.65490068666783,Chicago Bulls,115.50200197889654
145336,Governors State University,IL,41.448645,-87.716689,ENC,Chicago White Sox,26.693742127470447,Chicago Bulls,29.922809772783612
145372,Greenville University,IL,38.89361111,-89.40861111,ENC,St. Louis Cardinals,46.22976460670535,Indiana Pacers,183.95145131326726
145600,University of Illinois at Chicago,IL,41.87166667,-87.64916667,ENC,Chicago White Sox,2.9843397534939546,Chicago Bulls,1.4252989078017066
145619,Benedictine University,IL,41.77722222,-88.09583333,ENC,Chicago White Sox,24.070056407372235,Chicago Bulls,22.853055469938393
145637,University of Illinois at Urbana-Champaign,IL,40.11055556,-88.22833333,ENC,Chicago White Sox,122.78217699672717,Indiana Pacers,112.38910240603502
145646,Illinois Wesleyan University,IL,40.49055556,-88.99138889,ENC,Chicago White Sox,116.40681709530621,Chicago Bulls,117.95829517919583
145682,Illinois Central College,IL,40.70777778,-89.525,ENC,Chicago White Sox,125.12341791355456,Chicago Bulls,125.68260074998157
145691,Illinois College,IL,39.73027778,-90.24666667,ENC,St. Louis Cardinals,76.59399471839632,Chicago Bulls,200.41395538711902
145707,Olney Central College,IL,38.72963889,-88.08166667,ENC,St. Louis Cardinals,114.12743990193079,Indiana Pacers,125.40755042509058
145725,Illinois Institute of Technology,IL,41.83465278,-87.62833333,ENC,Chicago White Sox,0.43028828465893026,Chicago Bulls,3.952513030950101
145813,Illinois State University,IL,40.51076,-88.99346,ENC,Chicago White Sox,115.35948587208443,Chicago Bulls,116.88155155156412
145831,Illinois Valley Community College,IL,41.30831,-89.096048,ENC,Chicago White Sox,83.73626340725372,Chicago Bulls,83.43348641278952
146205,John A Logan College,IL,37.74777778,-89.08888889,ENC,St. Louis Cardinals,85.13723525163907,Memphis Grizzlies,188.04835168767372
146278,John Wood Community College,IL,39.92972222,-91.34027778,ENC,St. Louis Cardinals,109.18911753808642,Chicago Bulls,234.10029872915743
146296,Joliet Junior College,IL,41.5,-88.18,ENC,Chicago White Sox,36.25507581359538,Chicago Bulls,37.047324504798034
146339,Judson University,IL,42.06638889,-88.29527778,ENC,Chicago Cubs,33.845992200821684,Chicago Bulls,34.3917058668077
146348,Kankakee Community College,IL,41.0985,-87.8505,ENC,Chicago White Sox,51.7711861043031,Chicago Bulls,54.800170270007904
146366,Kaskaskia College,IL,38.5625,-89.19277778,ENC,St. Louis Cardinals,54.17713357800881,Indiana Pacers,182.64483557892848
146418,Kishwaukee College,IL,41.938,-88.881,ENC,Chicago Cubs,62.98178150746053,Chicago Bulls,62.181097324670986
146472,College of Lake County,IL,42.35444444,-88.01305556,ENC,Chicago Cubs,33.5226286066719,Chicago Bulls,37.06394656284337
146481,Lake Forest College,IL,42.2496,-87.8285,ENC,Chicago Cubs,22.64279982956896,Chicago Bulls,26.699096262140365
146506,Lake Land College,IL,39.416846,-88.38069399999999,ENC,St. Louis Cardinals,111.69883992321358,Indiana Pacers,120.87564153589128
146603,Lewis and Clark Community College,IL,38.95172222,-90.19427778,ENC,St. Louis Cardinals,22.74718421166776,Indiana Pacers,222.91620092194447
146612,Lewis University,IL,41.604781,-88.080524,ENC,Chicago White Sox,27.798247922539403,Chicago Bulls,28.318313299192027
146667,Lincoln Christian University,IL,40.15694444,-89.36055556,ENC,St. Louis Cardinals,114.96114704311812,Chicago Bulls,148.016689248315
146685,Lincoln Land Community College,IL,39.72138889,-89.61111111,ENC,St. Louis Cardinals,82.07524639115226,Chicago Bulls,180.31845562177338
146719,Loyola University Chicago,IL,41.9999,-87.6578,ENC,Chicago Cubs,3.583964499065786,Chicago Bulls,8.288678798262655
146825,MacMurray College,IL,39.7318,-90.2231,ENC,St. Louis Cardinals,76.66221997142736,Chicago Bulls,199.5098043856636
147004,McHenry County College,IL,42.259809999999995,-88.368251,ENC,Chicago Cubs,42.411460342061496,Chicago Bulls,44.2034069239002
147013,McKendree University,IL,38.60694444,-89.81527778,ENC,St. Louis Cardinals,20.423315688911202,Indiana Pacers,211.64822072664913
147244,Millikin University,IL,39.8425,-88.975,ENC,St. Louis Cardinals,106.55756508820265,Indiana Pacers,149.75084866820563
147341,Monmouth College,IL,40.91444444,-90.63722222,ENC,St. Louis Cardinals,160.1047766979836,Chicago Bulls,167.44176975646857
147369,Moody Bible Institute,IL,41.897345,-87.63299599999999,ENC,Chicago Cubs,3.690720253743931,Chicago Bulls,2.414568669869282
147378,Moraine Valley Community College,IL,41.69305556,-87.83777778,ENC,Chicago White Sox,14.140323751618249,Chicago Bulls,15.455730347418921
147411,Morton College,IL,41.824,-87.76263889,ENC,Chicago White Sox,6.6417438534682605,Chicago Bulls,6.000145202969313
147660,North Central College,IL,41.77555556,-88.14277778,ENC,Chicago White Sox,26.47897938412805,Chicago Bulls,25.193521593745558
147679,North Park University,IL,41.9752,-87.7098,ENC,Chicago Cubs,3.3592444428315766,Chicago Bulls,6.790969781621764
147703,Northern Illinois University,IL,41.93388889,-88.77777778,ENC,Chicago Cubs,57.683404299358365,Chicago Bulls,56.86812128208099
147767,Northwestern University,IL,42.0548,-87.6739,ENC,Chicago Cubs,7.435239818753345,Chicago Bulls,12.039121609660908
147800,Oakton Community College,IL,42.063444,-87.880201,ENC,Chicago Cubs,14.020983519716916,Chicago Bulls,16.48311722234114
148007,Prairie State College,IL,41.528,-87.63799999999999,ENC,Chicago White Sox,20.86729117184743,Chicago Bulls,24.430638462586533
148131,Quincy University,IL,39.9407,-91.38602900000001,ENC,St. Louis Cardinals,111.2000178896135,Chicago Bulls,235.61170794239757
148256,Rend Lake College,IL,38.13081944,-88.91896944,ENC,St. Louis Cardinals,76.91895214336184,Indiana Pacers,186.48286669783718
148335,Robert Morris University Illinois,IL,41.87630556,-87.62719444,ENC,Chicago White Sox,3.217906254581982,Chicago Bulls,2.4342550838458994
148380,Rock Valley College,IL,42.306999999999995,-88.994,ENC,Milwaukee Brewers,72.00263189754139,Chicago Bulls,73.80412433078781
148405,Rockford University,IL,42.267340000000004,-89.0181,ENC,Chicago Cubs,73.24339797587204,Chicago Bulls,73.92430947980594
148487,Roosevelt University,IL,41.87611111,-87.62472222,ENC,Chicago White Sox,3.220712724868827,Chicago Bulls,2.5621334951052526
148584,University of St Francis,IL,41.533,-88.0955,ENC,Chicago White Sox,31.440485837024987,Chicago Bulls,32.38821706842021
148627,Saint Xavier University,IL,41.70861111,-87.71472222,ENC,Chicago White Sox,9.364623525603582,Chicago Bulls,12.062537321255355
148654,University of Illinois at Springfield,IL,39.729021,-89.61765600000001,ENC,St. Louis Cardinals,82.43096829439699,Chicago Bulls,180.07211795054727
148672,Sauk Valley Community College,IL,41.8175,-89.59794444,ENC,Chicago Cubs,100.32238610620267,Chicago Bulls,99.10681276269602
148821,Shawnee Community College,IL,37.27055556,-89.03388889,ENC,St. Louis Cardinals,112.75603489800218,Memphis Grizzlies,157.8472476246047
148937,Southeastern Illinois College,IL,37.7525,-88.43555556,ENC,St. Louis Cardinals,112.79276690550705,Indiana Pacers,185.4693457904204
148991,Spoon River College,IL,40.52777778,-90.0725,ENC,St. Louis Cardinals,131.79858507069176,Chicago Bulls,155.80924385200768
149222,Southern Illinois University-Carbondale,IL,37.710426,-89.219306,ENC,St. Louis Cardinals,82.27489467803521,Memphis Grizzlies,183.62260726391457
149231,Southern Illinois University-Edwardsville,IL,38.793396,-90.0,ENC,St. Louis Cardinals,15.7406747988196,Indiana Pacers,216.25054934166587
149365,South Suburban College,IL,41.60416667,-87.61972222,ENC,Chicago White Sox,15.620693392606054,Chicago Bulls,19.30185499482178
149505,Trinity Christian College,IL,41.66894444,-87.78297222,ENC,Chicago White Sox,13.523614602894742,Chicago Bulls,15.659031630075066
149532,Triton College,IL,41.91527778,-87.84305556,ENC,Chicago Cubs,9.900295413291692,Chicago Bulls,9.010945013844243
149727,Waubonsee Community College,IL,41.79694444,-88.45833333,ENC,Chicago White Sox,42.51735433003814,Chicago Bulls,40.777147078209175
149772,Western Illinois University,IL,40.470392,-90.68774,ENC,St. Louis Cardinals,130.36839544252098,Chicago Bulls,184.524813265255
149842,William Rainey Harper College,IL,42.081,-88.071,ENC,Chicago Cubs,23.22072508479686,Chicago Bulls,24.64209584819407
150048,Ancilla College,IN,41.3376,-86.4459,ENC,Chicago White Sox,70.19145989986261,Chicago Bulls,73.71211501817817
150136,Ball State University,IN,40.1983223,-85.40894318,ENC,Cincinnati Reds,89.93874043875661,Indiana Pacers,49.63294851616024
150145,Bethel College-Indiana,IN,41.6777,-86.1932,ENC,Chicago White Sox,75.00061491363972,Chicago Bulls,77.5812357099364
150163,Butler University,IN,39.83944444,-86.17138889,ENC,Cincinnati Reds,102.52648362827482,Indiana Pacers,5.287603330992948
150172,Calumet College of Saint Joseph,IN,41.670929,-87.494385,ENC,Chicago White Sox,13.134223051075082,Chicago Bulls,17.19291027402686
150400,DePauw University,IN,39.64138889,-86.86027778,ENC,Cincinnati Reds,131.2078784861307,Indiana Pacers,38.40602748883921
150455,Earlham College,IN,39.82456667,-84.91327222,ENC,Cincinnati Reds,54.717853066959485,Indiana Pacers,66.08268559578605
150534,University of Evansville,IN,37.971631,-87.531552,ENC,St. Louis Cardinals,151.15759263834815,Indiana Pacers,144.2658720530426
150668,Goshen College,IN,41.5637,-85.8272,ENC,Chicago White Sox,95.00440978570025,Chicago Bulls,97.72958312538779
150677,Grace College and Theological Seminary,IN,41.225861,-85.815915,ENC,Chicago White Sox,102.88110526202945,Indiana Pacers,102.576657796994
150756,Hanover College,IN,38.71222222,-85.46083333,ENC,Cincinnati Reds,57.79811997010341,Indiana Pacers,81.62114811677459
151102,Indiana University-Purdue University-Fort Wayne,IN,41.118821999999994,-85.109024,ENC,Detroit Tigers,135.62940339961685,Indiana Pacers,108.59167814915095
151111,Indiana University-Purdue University-Indianapolis,IN,39.773996000000004,-86.176361,ENC,Cincinnati Reds,100.61398971621718,Indiana Pacers,1.307080388800324
151263,University of Indianapolis,IN,39.70972222,-86.13513889,ENC,Cincinnati Reds,96.68319025350343,Indiana Pacers,3.8966157424056105
151290,Indiana Institute of Technology,IN,41.07776667,-85.11717778,ENC,Detroit Tigers,137.76215213830173,Indiana Pacers,105.94304667658412
151306,University of Southern Indiana,IN,37.962589,-87.67607,ENC,St. Louis Cardinals,143.90045008626024,Indiana Pacers,148.92841782932445
151324,Indiana State University,IN,39.47,-87.41,ENC,Cincinnati Reds,157.3805840598774,Indiana Pacers,69.78577109585837
151333,Indiana University-Kokomo,IN,40.459821999999996,-86.131493,ENC,Chicago White Sox,122.76808073027026,Indiana Pacers,48.101199227135425
151342,Indiana University-South Bend,IN,41.664128000000005,-86.220833,ENC,Chicago White Sox,73.73821816214104,Chicago Bulls,76.3672234521393
151351,Indiana University-Bloomington,IN,39.167221999999995,-86.521389,ENC,Cincinnati Reds,108.08437586937919,Indiana Pacers,45.610733349688275
151360,Indiana University-Northwest,IN,41.556629,-87.337875,ENC,Chicago White Sox,24.289973145102167,Chicago Bulls,28.31456468647212
151379,Indiana University-Southeast,IN,38.345,-85.81916667,ENC,Cincinnati Reds,87.80008419531502,Indiana Pacers,99.68321609531993
151388,Indiana University-East,IN,39.867872,-84.887586,ENC,Cincinnati Reds,56.97190874501882,Indiana Pacers,67.67438818218734
151777,Manchester University,IN,53.46555556,-2.23361111,ENC,Boston Red Sox,3149.3819195356527,Boston Celtics,3147.1004436781013
152080,University of Notre Dame,IN,41.699588500000004,-86.23707809999999,ENC,Chicago White Sox,72.5466307467899,Chicago Bulls,75.07982671356609
152099,Oakland City University,IN,38.3399,-87.3518,ENC,St. Louis Cardinals,154.90450961542402,Indiana Pacers,117.47085738220714
152318,Rose-Hulman Institute of Technology,IN,39.4825,-87.32416667,ENC,Cincinnati Reds,152.98897028567612,Indiana Pacers,65.16042311966721
152336,University of Saint Francis-Fort Wayne,IN,41.08729167,-85.17612222,ENC,Chicago White Sox,137.21520682885168,Indiana Pacers,104.94967387169342
152381,Saint Mary-of-the-Woods College,IN,39.508726,-87.466493,ENC,St. Louis Cardinals,158.5593828825375,Indiana Pacers,71.94697414054303
152530,Taylor University,IN,40.45805556,-85.49722222,ENC,Cincinnati Reds,107.7183653805087,Indiana Pacers,59.24981020369957
152600,Valparaiso University,IN,41.46361111,-87.04361111,ENC,Chicago White Sox,39.61871818432047,Chicago Bulls,43.4619626135071
152637,Vincennes University,IN,38.687084000000006,-87.52003,ENC,St. Louis Cardinals,144.29146219908418,Indiana Pacers,104.2522156125199
152992,Briar Cliff University,IA,42.529601,-96.423227,WNC,Minnesota Twins,230.9102148904139,Minnesota Timberwolves,230.87497440013033
153001,Buena Vista University,IA,42.642588,-95.207875,WNC,Minnesota Twins,188.06767811487236,Minnesota Timberwolves,187.99337567806026
153126,Clarke University,IA,42.51,-90.691,WNC,Milwaukee Brewers,142.5213200624975,Milwaukee Bucks,145.42894140552596
153144,Coe College,IA,41.98833333,-91.65694444,WNC,Milwaukee Brewers,200.99488814301563,Milwaukee Bucks,203.92614545671566
153162,Cornell College,IA,41.92611111,-91.42583333,WNC,Milwaukee Brewers,191.79714447081028,Chicago Bulls,192.93726630528883
153250,Dordt College,IA,43.083312,-96.16711,WNC,Minnesota Twins,194.38734151090716,Minnesota Timberwolves,194.36729010876664
153269,Drake University,IA,41.60111111,-93.65222222,WNC,Kansas City Royals,181.50820613575098,Minnesota Timberwolves,234.18492640824172
153278,University of Dubuque,IA,42.498459999999994,-90.692194,WNC,Milwaukee Brewers,142.79464698350898,Milwaukee Bucks,145.70420213173102
153296,Ellsworth Community College,IA,42.527692,-93.26632,WNC,Minnesota Twins,169.55456083085866,Minnesota Timberwolves,169.40063392738736
153320,Faith Baptist Bible College and Theological Seminary,IA,41.736999999999995,-93.625,WNC,Kansas City Royals,190.95767464859728,Minnesota Timberwolves,224.71542147976646
153375,Grand View University,IA,41.620546000000004,-93.604279,WNC,Kansas City Royals,183.42870549912757,Minnesota Timberwolves,232.66306426093067
153384,Grinnell College,IA,41.749057,-92.72013000000001,WNC,Kansas City Royals,208.13704350547007,Minnesota Timberwolves,224.9372121344229
153445,Hawkeye Community College,IA,42.431009,-92.3296993,WNC,Minnesota Twins,182.488054578207,Minnesota Timberwolves,182.31119098621116
153472,Indian Hills Community College,IA,41.045,-92.39399999999999,WNC,Kansas City Royals,176.4931850649597,Chicago Bulls,251.071798184767
153524,Iowa Central Community College,IA,42.488684,-94.203989,WNC,Minnesota Twins,178.33628081778863,Minnesota Timberwolves,178.21697275069062
153533,Iowa Lakes Community College,IA,43.397,-94.8177,WNC,Minnesota Twins,133.4269445976625,Minnesota Timberwolves,133.3647947276827
153603,Iowa State University,IA,42.02611111,-93.64833333,WNC,Minnesota Twins,205.04888154663828,Minnesota Timberwolves,204.90607188842964
153621,Iowa Wesleyan University,IA,40.9725,-91.5522,WNC,St. Louis Cardinals,177.67165676579936,Chicago Bulls,210.45355682179922
153630,Iowa Western Community College,IA,41.274536,-95.800195,WNC,Kansas City Royals,168.70115548109752,Minnesota Timberwolves,285.84484395129766
153658,University of Iowa,IA,41.66166667,-91.53638889,WNC,Chicago Cubs,200.83628809736115,Chicago Bulls,199.57971304286886
153737,Kirkwood Community College,IA,41.91111111,-91.65166667,WNC,Milwaukee Brewers,202.8208116412528,Chicago Bulls,204.5569049432009
153825,Loras College,IA,42.505,-90.68,WNC,Milwaukee Brewers,142.07430110930488,Milwaukee Bucks,144.98317999619036
153922,Marshalltown Community College,IA,42.001000000000005,-92.90899999999999,WNC,Minnesota Twins,206.77419278997274,Minnesota Timberwolves,206.61132593399392
154004,Morningside College,IA,42.47444444,-96.36166667,WNC,Minnesota Twins,231.71626759083466,Minnesota Timberwolves,231.6771431066102
154013,Mount Mercy University,IA,42.00224444,-91.651525,WNC,Milwaukee Brewers,200.37584823971093,Milwaukee Bucks,203.30680144083968
154095,University of Northern Iowa,IA,42.515,-92.46055556,WNC,Minnesota Twins,175.24718333441712,Minnesota Timberwolves,175.0722087480637
154350,Simpson College,IA,41.3645,-93.565,WNC,Kansas City Royals,166.9772489415291,Minnesota Timberwolves,250.19218349500466
154493,Upper Iowa University,IA,42.838,-91.8,WNC,Minnesota Twins,165.3785876530979,Minnesota Timberwolves,165.19247879840134
154518,Waldorf University,IA,43.263365,-93.639992,WNC,Minnesota Twins,120.07041947379034,Minnesota Timberwolves,119.93515745535426
154527,Wartburg College,IA,42.72911,-92.48196999999999,WNC,Minnesota Twins,160.61229050406453,Minnesota Timberwolves,160.43633891018303
154590,William Penn University,IA,41.309,-92.6481,WNC,Kansas City Royals,183.54167646458893,Minnesota Timberwolves,255.569651121194
154642,Allen County Community College,KS,37.93805556,-95.39638889,WNC,Kansas City Royals,91.48057656726992,Oklahoma City Thunder,207.37581923664163
154688,Baker University,KS,38.7775,-95.18777778,WNC,Kansas City Royals,42.48450086984093,Oklahoma City Thunder,262.412898629944
154697,Barton County Community College,KS,38.40361111,-98.73166667,WNC,Kansas City Royals,233.47413026500735,Oklahoma City Thunder,213.97177288850713
154712,Benedictine College,KS,39.57394,-95.11465,WNC,Kansas City Royals,49.56319357301719,Oklahoma City Thunder,312.96522568751
154800,Butler Community College,KS,37.806676,-96.882984,WNC,Kansas City Royals,155.90271822583804,Oklahoma City Thunder,165.65678148925497
154855,Central Christian College of Kansas,KS,38.3575,-97.6675,WNC,Kansas City Royals,178.41125687455553,Oklahoma City Thunder,200.14519138017673
154907,Cloud County Community College,KS,39.55444444,-97.66388889,WNC,Kansas City Royals,173.73464383732116,Oklahoma City Thunder,282.7865092027009
154925,Coffeyville Community College,KS,37.03416667,-95.62305556,WNC,Kansas City Royals,152.5973080631999,Oklahoma City Thunder,151.29796248051784
154934,Colby Community College,KS,39.37805556,-101.0519444,WNC,Colorado Rockies,211.57405026745167,Denver Nuggets,212.22684368885325
154952,Cowley County Community College,KS,37.06083333,-97.0425,WNC,Kansas City Royals,195.79916740145754,Oklahoma City Thunder,113.47177764069303
154998,Dodge City Community College,KS,37.7768,-100.0374,WNC,Colorado Rockies,299.9517777908694,Oklahoma City Thunder,212.3879834230634
155025,Emporia State University,KS,38.416022999999996,-96.17958399999999,WNC,Kansas City Royals,101.56495810603732,Oklahoma City Thunder,216.9239478310135
155061,Fort Hays State University,KS,38.87333333,-99.34333333,WNC,Kansas City Royals,261.5364386673888,Oklahoma City Thunder,256.1957783061089
155070,Barclay College,KS,37.621392,-99.104876,WNC,Kansas City Royals,269.368128003193,Oklahoma City Thunder,173.2613181769641
155089,Friends University,KS,37.67833333,-97.36666667,WNC,Kansas City Royals,182.8813050872416,Oklahoma City Thunder,153.26306051636973
155098,Fort Scott Community College,KS,37.815290999999995,-94.71406999999999,WNC,Kansas City Royals,86.31402626382102,Oklahoma City Thunder,224.746666142096
155104,Garden City Community College,KS,37.97166667,-100.8494444,WNC,Colorado Rockies,254.75764807999002,Oklahoma City Thunder,253.22707231154214
155140,Haskell Indian Nations University,KS,38.93972222,-95.23277778,WNC,Kansas City Royals,41.14811368880229,Oklahoma City Thunder,271.0261971393434
155177,Hesston College,KS,38.1348,-97.4332,WNC,Kansas City Royals,171.57563323070488,Oklahoma City Thunder,184.63623642719716
155195,Hutchinson Community College,KS,38.069192,-97.920282,WNC,Kansas City Royals,197.84701721761357,Oklahoma City Thunder,181.43910485514567
155201,Independence Community College,KS,37.19444444,-95.72138889,WNC,Kansas City Royals,144.93605732219322,Oklahoma City Thunder,155.79387955756502
155210,Johnson County Community College,KS,38.9257,-94.7279,WNC,Kansas City Royals,15.880667489378686,Oklahoma City Thunder,284.14698270239916
155292,Kansas City Kansas Community College,KS,39.121782,-94.748622,WNC,Kansas City Royals,15.213689967462132,Oklahoma City Thunder,294.94802976337775
155317,University of Kansas,KS,38.95805556,-95.24777778,WNC,Kansas City Royals,41.72077255318572,Oklahoma City Thunder,271.76259425298383
155399,Kansas State University,KS,39.19166667,-96.58083333,WNC,Kansas City Royals,113.02800737693471,Oklahoma City Thunder,262.6616478990954
155414,Kansas Wesleyan University,KS,38.81361111,-97.60944444,WNC,Kansas City Royals,168.98753887889802,Oklahoma City Thunder,231.5405691087932
155450,Labette Community College,KS,37.33916667,-95.25527778,WNC,Kansas City Royals,125.54365544890763,Oklahoma City Thunder,180.51616786659852
155496,Manhattan Christian College,KS,39.18555556,-96.57888889,WNC,Kansas City Royals,112.8934851949776,Oklahoma City Thunder,262.268889665368
155511,McPherson College,KS,38.37138889,-97.64444444,WNC,Kansas City Royals,176.94138156750512,Oklahoma City Thunder,201.05464804448377
155520,MidAmerica Nazarene University,KS,38.874159999999996,-94.78312,WNC,Kansas City Royals,20.358936559856254,Oklahoma City Thunder,279.5390370359853
155566,Neosho County Community College,KS,37.67,-95.46416667,WNC,Kansas City Royals,109.30314439637752,Oklahoma City Thunder,190.24556688170838
155618,Northwest Kansas Technical College,KS,39.3463,-101.7009,WNC,Colorado Rockies,177.7077846091354,Denver Nuggets,178.33688943576863
155681,Pittsburg State University,KS,37.3913,-94.7024,WNC,Kansas City Royals,115.30792049416044,Oklahoma City Thunder,205.3924214840505
155715,Pratt Community College,KS,37.65444444,-98.71444444,WNC,Kansas City Royals,248.86822007029343,Oklahoma City Thunder,165.3757785262451
155812,University of Saint Mary,KS,39.27694444,-94.90666667,WNC,Kansas City Royals,27.679410706419148,Oklahoma City Thunder,299.8686816308708
155858,Seward County Community College,KS,37.05972222,-100.9180556,WNC,Colorado Rockies,288.75355952154155,Oklahoma City Thunder,219.31895871710765
156082,Washburn University,KS,39.033786,-95.698975,WNC,Kansas City Royals,65.42476841532655,Oklahoma City Thunder,266.13026550768024
156125,Wichita State University,KS,37.71916667,-97.29305556,WNC,Kansas City Royals,177.97318294245764,Oklahoma City Thunder,156.34865738214035
156189,Alice Lloyd College,KY,37.33591667,-82.87359444,ESC,Cincinnati Reds,150.57011252060482,Charlotte Hornets,184.68398026743944
156213,Asbury University,KY,37.8636,-84.6649,ESC,Cincinnati Reds,85.68282735607671,Indiana Pacers,153.87507135938557
156286,Bellarmine University,KY,38.2198,-85.70299999999999,ESC,Cincinnati Reds,88.56403119910232,Indiana Pacers,109.4190065831508
156295,Berea College,KY,37.573,-84.292,ESC,Cincinnati Reds,105.97336900896983,Indiana Pacers,181.7070679517849
156356,Brescia University,KY,37.76895,-87.112075,ESC,Cincinnati Reds,168.2465516030317,Indiana Pacers,147.15168212268287
156365,Campbellsville University,KY,37.34416667,-85.34777778,ESC,Cincinnati Reds,129.46010494640365,Indiana Pacers,172.78778335213931
156408,Centre College,KY,37.643325,-84.780979,ESC,Cincinnati Reds,101.56663546865948,Indiana Pacers,164.1908446933028
156541,University of the Cumberlands,KY,36.73713,-84.16230999999999,ESC,Cincinnati Reds,164.16220608146716,Atlanta Hawks,206.31502473566462
156620,Eastern Kentucky University,KY,37.734154499999995,-84.30143419,ESC,Cincinnati Reds,94.8510826732247,Indiana Pacers,172.18109374587422
156745,Georgetown College,KY,38.207,-84.554,ESC,Cincinnati Reds,61.58067379946993,Indiana Pacers,137.7257977835706
157058,Kentucky State University,KY,38.2,-84.85833333,ESC,Cincinnati Reds,64.8497282250932,Indiana Pacers,128.5656061485598
157076,Kentucky Wesleyan College,KY,37.7435,-87.1202,ESC,Cincinnati Reds,169.5993969527944,Indiana Pacers,148.95534243904055
157085,University of Kentucky,KY,38.03333333,-84.5,ESC,Cincinnati Reds,73.527796213735,Indiana Pacers,149.0642909361134
157100,Kentucky Christian University,KY,38.341,-82.947,ESC,Cincinnati Reds,98.99906037492505,Indiana Pacers,198.23219366969153
157216,Lindsey Wilson College,KY,37.1028,-85.3015,ESC,Cincinnati Reds,144.4356522289211,Indiana Pacers,189.5822253326674
157289,University of Louisville,KY,38.215,-85.76027778,ESC,Cincinnati Reds,91.0641788291557,Indiana Pacers,109.10271219487775
157377,Midway University,KY,38.14611,-84.67889,ESC,Cincinnati Reds,66.3889184866731,Indiana Pacers,137.06899675846714
157386,Morehead State University,KY,38.189,-83.431,ESC,Cincinnati Reds,85.4965355106608,Indiana Pacers,182.3513548353311
157401,Murray State University,KY,36.61555556,-88.32138889,ESC,St. Louis Cardinals,172.3877608497234,Memphis Grizzlies,140.66836232543204
157447,Northern Kentucky University,KY,39.03194444,-84.46527778,ESC,Cincinnati Reds,5.04440570455093,Indiana Pacers,103.44908643951707
157535,University of Pikeville,KY,37.4791,-82.52119,ESC,Cincinnati Reds,155.22652021809984,Charlotte Hornets,181.69690655093393
157757,Spalding University,KY,38.2415,-85.75886111,ESC,Cincinnati Reds,89.78164033967589,Indiana Pacers,107.32160790196393
157818,Transylvania University,KY,38.0522,-84.4936,ESC,Cincinnati Reds,72.22679999369561,Indiana Pacers,148.22084772190615
157863,Union College,KY,42.81722222,-73.93,ESC,New York Yankees,137.3616819985228,New York Knicks,142.83062594765286
157951,Western Kentucky University,KY,36.98611111,-86.45555556,ESC,Cincinnati Reds,180.34500826123605,Indiana Pacers,192.61248536600527
158477,Centenary College of Louisiana,LA,32.484,-93.73200000000001,WSC,Texas Rangers,195.92683466241576,Dallas Mavericks,180.3469430490373
158662,Delgado Community College,LA,29.986609,-90.103988,WSC,Houston Astros,315.0136374077553,New Orleans Pelicans,2.9211800844090376
158802,Dillard University,LA,29.995,-90.06527778,WSC,Houston Astros,317.3455486044093,New Orleans Pelicans,3.33848093844281
159009,Grambling State University,LA,32.5252,-92.7153,WSC,Houston Astros,246.88256422936107,New Orleans Pelicans,236.38661821445362
159391,Louisiana State University and Agricultural & Mechanical College,LA,30.4145,-91.17826,WSC,Houston Astros,253.8217679538769,New Orleans Pelicans,72.95497777221382
159407,Louisiana State University-Eunice,LA,30.47472222,-92.43416667,WSC,Houston Astros,181.50163709790897,New Orleans Pelicans,145.0675153677705
159416,Louisiana State University-Shreveport,LA,32.426788,-93.706234,WSC,Texas Rangers,197.88546528441898,Dallas Mavericks,182.39537387917684
159647,Louisiana Tech University,LA,32.5275,-92.6475,WSC,Houston Astros,249.5569321452507,New Orleans Pelicans,233.8910109924205
159656,Loyola University New Orleans,LA,29.935,-90.12083333,WSC,Houston Astros,313.92716288123296,New Orleans Pelicans,2.518372815848952
159717,McNeese State University,LA,30.18055556,-93.21666667,WSC,Houston Astros,131.32494706304126,Houston Rockets,131.81225176707179
159939,University of New Orleans,LA,30.0275,-90.0671,WSC,Houston Astros,317.3092020792844,New Orleans Pelicans,5.503665743388749
159966,Nicholls State University,LA,29.7903,-90.8027,WSC,Houston Astros,273.0389670226995,New Orleans Pelicans,44.55257117564929
159993,University of Louisiana at Monroe,LA,32.527,-92.074,WSC,Houston Astros,272.52866270256254,New Orleans Pelicans,213.48197990103344
160038,Northwestern State University of Louisiana,LA,31.75,-93.0972,WSC,Houston Astros,192.19857366276318,Houston Rockets,192.78012767680417
160612,Southeastern Louisiana University,LA,30.517,-90.46799999999999,WSC,Houston Astros,296.70817339871024,New Orleans Pelicans,45.51791422946375
160658,University of Louisiana at Lafayette,LA,30.2126,-92.0193,WSC,Houston Astros,202.11988795502495,New Orleans Pelicans,117.25324216231108
160755,Tulane University of Louisiana,LA,29.94,-90.12,WSC,Houston Astros,313.9829116760787,New Orleans Pelicans,2.3597442216967206
160904,Xavier University of Louisiana,LA,29.965219,-90.106994,WSC,Houston Astros,314.7965464525712,New Orleans Pelicans,1.876624744453443
160977,Bates College,ME,44.10555556,-70.20416667,NE,Boston Red Sox,129.61204643402633,Boston Celtics,127.69532472583379
161004,Bowdoin College,ME,43.909,-69.96300000000001,NE,Boston Red Sox,122.1977429401753,Boston Celtics,120.13439935429734
161077,Central Maine Community College,ME,44.13416667,-70.235,NE,Boston Red Sox,130.94144618364874,Boston Celtics,129.04520000637805
161086,Colby College,ME,44.56416667,-69.66305556,NE,Boston Red Sox,169.289749689453,Boston Celtics,167.2770055269735
161217,University of Maine at Augusta,ME,44.33833333,-69.79722222,NE,Boston Red Sox,152.36064863987684,Boston Celtics,150.34280102156808
161226,University of Maine at Farmington,ME,44.66666667,-70.14722222,NE,Boston Red Sox,167.24861744285982,Boston Celtics,165.4168534381122
161235,University of Maine at Fort Kent,ME,47.25,-68.5875,NE,Boston Red Sox,360.4248281838149,Boston Celtics,358.52434665280066
161244,University of Maine at Machias,ME,44.70972222,-67.45694444,NE,Boston Red Sox,244.7639724292815,Boston Celtics,242.49298283123335
161253,University of Maine,ME,44.8994,-68.6681,NE,Boston Red Sox,214.18829628919585,Boston Celtics,212.0300310986848
161299,Maine Maritime Academy,ME,44.38833333,-68.80333333,NE,Boston Red Sox,182.16244452837955,Boston Celtics,179.9502207731907
161341,University of Maine at Presque Isle,ME,46.67083333,-68.01666667,NE,Boston Red Sox,335.0886277110898,Boston Celtics,333.0520420302819
161518,Saint Joseph's College of Maine,ME,43.825475,-70.48209444,NE,Boston Red Sox,106.82106673282745,Boston Celtics,104.98110210372202
161545,Southern Maine Community College,ME,43.648,-70.22800000000001,NE,Boston Red Sox,100.10540198311983,Boston Celtics,98.07476070714115
161554,University of Southern Maine,ME,43.6625,-70.27611111,NE,Boston Red Sox,99.97064875052887,Boston Celtics,97.9680937115593
161563,Thomas College,ME,44.52434444,-69.66346944,NE,Boston Red Sox,166.80471605904108,Boston Celtics,164.78446000304916
161688,Allegany College of Maryland,MD,39.65277778,-78.72916667,SA,Pittsburgh Pirates,87.00535464596882,Washington Wizards,105.20203887970578
161767,Anne Arundel Community College,MD,39.0523,-76.5114,SA,Baltimore Orioles,17.056674653516968,Washington Wizards,29.365947309177173
161864,Baltimore City Community College,MD,39.319971,-76.66256800000001,SA,Baltimore Orioles,3.3162358563121623,Washington Wizards,34.91045026060609
162007,Bowie State University,MD,39.02158,-76.75684,SA,Washington Nationals,16.944866240675395,Washington Wizards,16.55317064711427
162104,Cecil College,MD,39.64138889,-75.95638889,SA,Baltimore Orioles,43.23771537782673,Philadelphia 76ers,45.35884168216124
162122,College of Southern Maryland,MD,38.55944444,-77.00916667,SA,Washington Nationals,21.649458371330525,Washington Wizards,23.40427967666941
162168,Chesapeake College,MD,38.951929,-76.081227,SA,Baltimore Orioles,36.950940247742246,Washington Wizards,50.64296800909583
162210,Washington Adventist University,MD,38.98611111,-77.0,SA,Washington Nationals,7.840956726101074,Washington Wizards,6.1861791063453175
162283,Coppin State University,MD,39.31028,-76.65861,SA,Baltimore Orioles,2.6882986513383136,Washington Wizards,34.473144833765666
162557,Frederick Community College,MD,39.45222222,-77.4175,SA,Baltimore Orioles,44.07184121315901,Washington Wizards,43.78889662788973
162584,Frostburg State University,MD,39.650352000000005,-78.93253,SA,Pittsburgh Pirates,79.06786182168264,Washington Wizards,114.70041586042186
162609,Garrett College,MD,39.56111111,-79.34222222,SA,Pittsburgh Pirates,70.56594535713066,Washington Wizards,132.41522921284488
162654,Goucher College,MD,39.40777778,-76.59222222,SA,Baltimore Orioles,8.703288180326325,Washington Wizards,42.04407506415542
162690,Hagerstown Community College,MD,39.63027778,-77.66833333,SA,Baltimore Orioles,60.749169252966155,Washington Wizards,61.31266524917323
162706,Harford Community College,MD,39.56055556,-76.28388889,SA,Baltimore Orioles,26.276213740327382,Washington Wizards,60.422798623332056
162760,Hood College,MD,39.4225,-77.41861111,SA,Baltimore Orioles,43.64168218893924,Washington Wizards,42.0374576353773
162779,Howard Community College,MD,39.2125,-76.87777778,SA,Baltimore Orioles,14.564356688785558,Washington Wizards,23.041951113038426
162928,Johns Hopkins University,MD,39.32888889,-76.62027778,SA,Baltimore Orioles,3.1100904051580036,Washington Wizards,36.70453593466206
163046,Loyola University Maryland,MD,39.34611111,-76.61888889,SA,Baltimore Orioles,4.301709513025053,Washington Wizards,37.71699686813635
163268,University of Maryland-Baltimore County,MD,39.2555,-76.71125556,SA,Baltimore Orioles,5.17803885544741,Washington Wizards,29.760099077060406
163286,University of Maryland-College Park,MD,38.9875,-76.94,SA,Washington Nationals,8.717385994204097,Washington Wizards,7.553917495069786
163338,University of Maryland Eastern Shore,MD,38.21,-75.68555556,SA,Washington Nationals,84.85602607977115,Washington Wizards,86.40126497429736
163426,Montgomery College,MD,39.09818,-77.15906,SA,Washington Nationals,17.572689321119075,Washington Wizards,15.693456171059067
163453,Morgan State University,MD,39.344,-76.585,SA,Baltimore Orioles,4.592564584018222,Washington Wizards,38.66720613185767
163462,Mount St. Mary's University,MD,39.681999999999995,-77.35300000000001,SA,Baltimore Orioles,47.724213769464015,Washington Wizards,57.003350543127006
163578,Notre Dame of Maryland University,MD,39.352,-76.622,SA,Baltimore Orioles,4.706063229143423,Washington Wizards,37.956992464640294
163657,Prince George's Community College,MD,38.88861111,-76.82472222,SA,Washington Nationals,9.891583119148397,Washington Wizards,10.566325864025911
163851,Salisbury University,MD,38.34555556,-75.60583333,SA,Washington Nationals,83.98697494653109,Washington Wizards,85.3903176425264
163912,St Mary's College of Maryland,MD,38.186659999999996,-76.43094,SA,Washington Nationals,56.731624108115575,Washington Wizards,58.584957947549206
164076,Towson University,MD,39.39277778,-76.60472222,SA,Baltimore Orioles,7.577798293102117,Washington Wizards,40.81142495591467
164216,Washington College,MD,39.21805556,-76.06944444,SA,Baltimore Orioles,29.89451101777802,Washington Wizards,55.62590720643881
164270,McDaniel College,MD,39.58472222,-77.00194444,SA,Baltimore Orioles,29.04923019327484,Washington Wizards,47.454882448825046
164447,American International College,MA,42.1126,-72.5578,NE,Boston Red Sox,76.42096064257474,Boston Celtics,78.48402087153327
164465,Amherst College,MA,42.37083333,-72.51694444,NE,Boston Red Sox,72.47760050443088,Boston Celtics,74.26005413043796
164492,Anna Maria College,MA,42.3294,-71.9194,NE,Boston Red Sox,41.98005763498451,Boston Celtics,43.845319728771514
164580,Babson College,MA,42.29823056,-71.26119167,NE,Boston Red Sox,8.984560231729679,Boston Celtics,11.198170859464978
164720,Becker College,MA,42.2685,-71.8119,NE,Boston Red Sox,36.88457137840182,Boston Celtics,38.891808484572614
164739,Bentley University,MA,42.387633,-71.22061,NE,Boston Red Sox,6.892927665318457,Boston Celtics,8.217234780512516
164924,Boston College,MA,42.335,-71.17027778,NE,Boston Red Sox,3.784721755961743,Boston Celtics,5.926074435061319
164988,Boston University,MA,42.3496,-71.0997,NE,Boston Red Sox,0.25197325917015506,Boston Celtics,2.2343177944630783
165015,Brandeis University,MA,42.365664,-71.259742,NE,Boston Red Sox,8.379084387615022,Boston Celtics,10.083195167684432
165033,Bristol Community College,MA,41.72213333,-71.12055278,NE,Boston Red Sox,43.13822948919243,Boston Celtics,44.608381490939
165334,Clark University,MA,42.250977,-71.823169,NE,Boston Red Sox,37.652138635507114,Boston Celtics,39.68946998765886
165529,Curry College,MA,42.23805556,-71.11638889,NE,Boston Red Sox,7.535978166812927,Boston Celtics,9.283240806406022
165574,Dean College,MA,42.08527778,-71.39888889,NE,Boston Red Sox,23.7191045331376,Boston Celtics,25.95598127840328
165644,Eastern Nazarene College,MA,42.27098983,-71.011891,NE,Boston Red Sox,6.803419235082013,Boston Celtics,7.0698173257730295
165662,Emerson College,MA,42.351807,-71.06599399999999,NE,Boston Red Sox,1.6664185437177759,Boston Celtics,1.0198670793274003
165699,Endicott College,MA,42.55197222,-70.84263889,NE,Boston Red Sox,19.266537613587502,Boston Celtics,17.02535416981139
165802,Fisher College,MA,42.35613333,-71.074075,NE,Boston Red Sox,1.3884314128566424,Boston Celtics,0.9271211870515584
165820,Fitchburg State University,MA,42.588858,-71.789167,NE,Boston Red Sox,39.02322527704004,Boston Celtics,40.10884249546285
165866,Framingham State University,MA,42.2977,-71.4366,NE,Boston Red Sox,17.63243904633775,Boston Celtics,19.70075282164723
165884,Benjamin Franklin Institute of Technology,MA,42.3457,-71.0702,NE,Boston Red Sox,1.4073900325201791,Boston Celtics,1.4805811784476106
166018,Hampshire College,MA,42.3249,-72.5308,NE,Boston Red Sox,73.20668097632183,Boston Celtics,75.04860550547369
166027,Harvard University,MA,42.37444444,-71.11694444,NE,Boston Red Sox,2.180649325022808,Boston Celtics,2.8491640999393053
166124,College of the Holy Cross,MA,42.23916667,-71.80833333,NE,Boston Red Sox,37.06346820225011,Boston Celtics,39.1257419966146
166133,Holyoke Community College,MA,42.19454167,-72.65024167,NE,Boston Red Sox,80.06322059688685,Boston Celtics,82.04012160552786
166391,Lasell College,MA,42.341296,-71.243356,NE,Boston Red Sox,7.443695001356512,Boston Celtics,9.408400323480711
166452,Lesley University,MA,42.37999444,-71.11711944,NE,Boston Red Sox,2.532551250168258,Boston Celtics,2.9572773637916705
166513,University of Massachusetts-Lowell,MA,42.642716,-71.33453,NE,Boston Red Sox,23.77182926765844,Boston Celtics,23.603614788066352
166629,University of Massachusetts-Amherst,MA,42.38888889,-72.52777778,NE,Boston Red Sox,73.059711872245,Boston Celtics,74.81791559555401
166638,University of Massachusetts-Boston,MA,42.313432,-71.038445,NE,Boston Red Sox,3.7839180185277828,Boston Celtics,3.8496764796051366
166647,Massachusetts Bay Community College,MA,42.31171111,-71.26375278,NE,Boston Red Sox,8.808850246731811,Boston Celtics,10.961671190901093
166683,Massachusetts Institute of Technology,MA,42.36,-71.092,NE,Boston Red Sox,0.9943667887471392,Boston Celtics,1.581090182362393
166692,Massachusetts Maritime Academy,MA,41.73972222,-70.62416667,NE,Boston Red Sox,48.442655856139304,Boston Celtics,48.77825468168622
166823,Massasoit Community College,MA,42.18343056,-71.10395278,NE,Boston Red Sox,11.254221810826026,Boston Celtics,12.814079196841542
167260,Nichols College,MA,42.05,-71.93333333,NE,Boston Red Sox,47.4157434076979,Boston Celtics,49.64972804545105
167288,Massachusetts College of Liberal Arts,MA,42.691672,-73.103921,NE,Boston Red Sox,104.91316421648524,Boston Celtics,106.35771186581901
167358,Northeastern University,MA,42.34,-71.08833333,NE,Boston Red Sox,0.646329520611302,Boston Celtics,2.2537901945453918
167376,Northern Essex Community College,MA,42.79598611,-71.04763889,NE,Boston Red Sox,31.178242280726348,Boston Celtics,29.697551674136594
167394,College of Our Lady of the Elms,MA,42.14226389,-72.60138889,NE,Boston Red Sox,78.1890407406244,Boston Celtics,80.2202387961247
167455,Pine Manor College,MA,42.316925,-71.15638611,NE,Boston Red Sox,3.6160001443585856,Boston Celtics,5.895988688639321
167525,Quincy College,MA,42.253005,-71.00317700000001,NE,Boston Red Sox,8.05392347822645,Boston Celtics,8.389500067075883
167534,Quinsigamond Community College,MA,42.31480278,-71.79363056,NE,Boston Red Sox,35.61103266912951,Boston Celtics,37.52223675719192
167631,Roxbury Community College,MA,42.3299,-71.09532778,NE,Boston Red Sox,1.136430843267331,Boston Celtics,3.0303688492347676
167729,Salem State University,MA,42.503468700000006,-70.8911095,NE,Boston Red Sox,15.13514545393075,Boston Celtics,12.882605117368147
167899,Springfield College,MA,42.10433333,-72.55505556,NE,Boston Red Sox,76.41139817639215,Boston Celtics,78.4818137788677
167905,Springfield Technical Community College,MA,42.10872778,-72.58018611,NE,Boston Red Sox,77.59915141215755,Boston Celtics,79.66222976487897
167987,University of Massachusetts-Dartmouth,MA,41.62861111,-71.00611111,NE,Boston Red Sox,49.806960480804875,Boston Celtics,51.051038182251894
167996,Stonehill College,MA,42.056999999999995,-71.08,NE,Boston Red Sox,20.005910556862855,Boston Celtics,21.390145762455706
168005,Suffolk University,MA,42.3579,-71.061,NE,Boston Red Sox,2.041860949443878,Boston Celtics,0.5839670631387056
168148,Tufts University,MA,42.406000000000006,-71.12,NE,Boston Red Sox,4.281692781240196,Boston Celtics,4.026851197375271
168227,Wentworth Institute of Technology,MA,42.336611,-71.095019,NE,Boston Red Sox,0.6804389232419271,Boston Celtics,2.6480661692778997
168254,Western New England University,MA,42.1155,-72.5197,NE,Boston Red Sox,74.47214949896696,Boston Celtics,76.53836924421144
168263,Westfield State University,MA,42.131392,-72.79600500000001,NE,Boston Red Sox,88.12900985866484,Boston Celtics,90.14573745020071
168342,Williams College,MA,42.7125,-73.205,NE,Boston Red Sox,110.2354447971934,Boston Celtics,111.67449600020431
168421,Worcester Polytechnic Institute,MA,42.27444444,-71.8075,NE,Boston Red Sox,36.6025333563343,Boston Celtics,38.59902981119946
168430,Worcester State University,MA,42.267586,-71.84376,NE,Boston Red Sox,38.505035819873946,Boston Celtics,40.50660411868104
168528,Adrian College,MI,41.898951000000004,-84.058424,ENC,Detroit Tigers,60.02870346455405,Detroit Pistons,69.03334170140648
168546,Albion College,MI,42.2445,-84.7434,ENC,Detroit Tigers,86.86625767778268,Detroit Pistons,82.48870302524634
168591,Alma College,MI,43.38,-84.671,ENC,Detroit Tigers,109.19082607704692,Detroit Pistons,86.07459313525177
168740,Andrews University,MI,41.963,-86.35799999999999,ENC,Chicago White Sox,66.25845505151993,Chicago Bulls,67.9021426863691
168883,Bay de Noc Community College,MI,45.7718,-87.0859,ENC,Milwaukee Brewers,194.52359663539303,Milwaukee Bucks,192.908157438568
169080,Calvin College,MI,42.93027778,-85.58805556,ENC,Milwaukee Brewers,120.64675462164354,Milwaukee Bucks,117.96411180516787
169248,Central Michigan University,MI,43.589802,-84.77749,ENC,Detroit Tigers,122.90891102595855,Detroit Pistons,98.84159293507177
169275,Mott Community College,MI,43.02,-83.6725,ENC,Detroit Tigers,56.71931834531896,Detroit Pistons,31.077553235731056
169327,Cleary University,MI,42.58744444,-83.8805,ENC,Detroit Tigers,45.74043956486555,Detroit Pistons,33.145942428039106
169363,Concordia University-Ann Arbor,MI,42.273999999999994,-83.68299999999999,ENC,Detroit Tigers,32.727321770886924,Detroit Pistons,36.75261024012562
169479,Davenport University,MI,42.8498,-85.5307,ENC,Milwaukee Brewers,124.05074499063163,Detroit Pistons,116.3738528627442
169521,Delta College,MI,43.55897222,-83.98613889,ENC,Detroit Tigers,96.70047337357892,Detroit Pistons,70.29927233469883
169716,University of Detroit Mercy,MI,42.41411,-83.137922,ENC,Detroit Tigers,6.898769105927241,Detroit Pistons,20.29527106254507
169798,Eastern Michigan University,MI,42.250153999999995,-83.624454,ENC,Detroit Tigers,30.06585237179494,Detroit Pistons,36.41189470548504
169910,Ferris State University,MI,43.697390000000006,-85.4839,ENC,Milwaukee Brewers,133.20941023126264,Milwaukee Bucks,130.27725779326178
169974,Glen Oaks Community College,MI,41.8922,-85.4967,ENC,Chicago White Sox,110.05728785264807,Chicago Bulls,112.00442911386112
169992,Gogebic Community College,MI,46.4721,-90.1655,ENC,Minnesota Twins,182.0403699473044,Minnesota Timberwolves,182.04139544782234
170037,Cornerstone University,MI,42.97944444,-85.59305556,ENC,Milwaukee Brewers,120.20309646718148,Milwaukee Bucks,117.48797726992721
170055,Grand Rapids Community College,MI,42.9665,-85.6666,ENC,Milwaukee Brewers,116.5304955834563,Milwaukee Bucks,113.82574272619189
170082,Grand Valley State University,MI,42.96361111,-85.88861111,ENC,Milwaukee Brewers,105.331477979459,Milwaukee Bucks,102.63557205961293
170091,Great Lakes Christian College,MI,42.75431,-84.63847,ENC,Detroit Tigers,85.85962304026717,Detroit Pistons,70.81006404186935
170240,Henry Ford College,MI,42.324,-83.236,ENC,Detroit Tigers,9.62864190284663,Detroit Pistons,25.77257233945125
170301,Hope College,MI,42.78694444,-86.10222222,ENC,Milwaukee Brewers,96.03715031921226,Milwaukee Bucks,93.52209729527942
170444,Jackson College,MI,42.16442,-84.4035,ENC,Detroit Tigers,70.33596177590083,Detroit Pistons,69.57593256131861
170532,Kalamazoo College,MI,42.29,-85.601,ENC,Chicago Cubs,107.91153858055091,Chicago Bulls,110.00345268406039
170550,Kellogg Community College,MI,42.3349,-85.1772,ENC,Detroit Tigers,108.71220785678433,Detroit Pistons,101.50280937138245
170587,Kirtland Community College,MI,44.601717799999996,-84.7084255,ENC,Detroit Tigers,177.0921914685104,Detroit Pistons,150.55662949544794
170620,Lake Michigan College,MI,42.09719444,-86.39291667,ENC,Chicago Cubs,65.62237219259988,Chicago Bulls,67.47943914101904
170639,Lake Superior State University,MI,46.493,-84.363,ENC,Detroit Tigers,294.2295095533681,Detroit Pistons,267.97463195954896
170657,Lansing Community College,MI,42.7388,-84.5525,ENC,Detroit Tigers,81.3873600253493,Detroit Pistons,66.40692125115133
170675,Lawrence Technological University,MI,42.47472222,-83.24888889,ENC,Detroit Tigers,13.86071592670763,Detroit Pistons,15.354998761836226
170790,Macomb Community College,MI,42.50463889,-82.97355556,ENC,Detroit Tigers,12.056921065566003,Detroit Pistons,19.18106125166518
170967,Rochester College,MI,42.66722222,-83.14527778,ENC,Detroit Tigers,23.195156864871294,Detroit Pistons,5.491778289863481
170976,University of Michigan-Ann Arbor,MI,42.27694444,-83.73805556,ENC,Detroit Tigers,35.48986774978275,Detroit Pistons,38.36397521828875
171100,Michigan State University,MI,42.725,-84.48,ENC,Detroit Tigers,77.60042392127319,Detroit Pistons,62.70063935364594
171128,Michigan Technological University,MI,47.12,-88.55,ENC,Minnesota Twins,270.54846793079867,Minnesota Timberwolves,270.5469094372906
171137,University of Michigan-Dearborn,MI,42.31972222,-83.23311111,ENC,Detroit Tigers,9.519489248963566,Detroit Pistons,26.071249406335514
171155,Mid Michigan Community College,MI,43.9694,-84.7642,ENC,Detroit Tigers,141.9965061871403,Detroit Pistons,116.42029918364409
171304,Muskegon Community College,MI,43.2492,-86.1957,ENC,Milwaukee Brewers,90.80138254261595,Milwaukee Bucks,87.92325540032967
